P20_001,名称,所在地,種別,P20_005,P20_006,P20_007,P20_008,P20_009,P20_010,P20_011,P20_012,レベル,備考,緯度,経度,NO
13101,いきいきプラザ一番町,東京都千代田区一番町12-2,指定避難所、二次避難所,-1,-1,0,0,0,0,0,1,1,,35.686898,139.739538,1
13101,お茶の水小学校,東京都千代田区猿楽町1-1-1,指定避難所、地区救援センター,-1,-1,0,0,0,0,0,1,1,,35.697347,139.760433,2
13101,ちよだパークサイドプラザ,東京都千代田区神田和泉町1,指定避難所、地区救援センター,-1,-1,0,0,0,0,0,1,3,,35.6993189991,139.778599,3
13101,岩本町ほほえみプラザ,東京都千代田区岩本町2-15-3,指定避難所,-1,-1,0,0,0,0,0,1,3,,35.694467,139.777894,4
13101,旧今川中学校,東京都千代田区鍛冶町2-4-2,指定避難所,-1,-1,0,0,0,0,0,1,3,,35.691698,139.773094,5
13101,旧練成中学校,東京都千代田区外神田6-11-14,指定避難所,-1,-1,0,0,0,0,0,1,3,,35.70421,139.770683,6
13101,九段小学校,東京都千代田区三番町16,指定避難所,-1,-1,0,0,0,0,0,1,1,,35.690291,139.740546,7
13101,九段生涯学習館,東京都千代田区九段南1-5-10,指定避難所,-1,-1,0,0,0,0,0,1,1,,35.695169,139.752106,8
13101,九段中等教育学校,東京都千代田区富士見1-10-14,指定避難所,-1,-1,0,0,0,0,0,1,4,,35.6965027571,139.74645831,9
13101,区立スポーツセンター,東京都千代田区内神田2-1-8,指定避難所,-1,-1,0,0,0,0,0,1,1,,35.68917,139.767556,10
13101,高齢者センター,東京都千代田区神田神保町2-20,指定避難所、二次避難所,-1,-1,0,0,0,0,0,1,1,,35.697124,139.756516,11
13101,麹町小学校,東京都千代田区麹町2-8,指定避難所、地区救援センター,-1,-1,0,0,0,0,0,1,1,,35.685653,139.739824,12
13101,麹町中学校,東京都千代田区平河町2-5-1,指定避難所,-1,-1,0,0,0,0,0,1,1,,35.680598,139.738769,13
13101,昌平童夢館,東京都千代田区外神田3-4-7,指定避難所、地区救援センター,-1,-1,0,0,0,0,0,1,3,,35.701152,139.769904,14
13101,神田さくら館,東京都千代田区神田司町2-16,指定避難所、地区救援センター,-1,-1,0,0,0,0,0,1,3,,35.6934859991,139.76846,15
13101,神田一橋中学校,東京都千代田区一ツ橋2-6-14,指定避難所,-1,-1,0,0,0,0,0,1,1,,35.694708,139.756822,16
13101,都立一橋高校,東京都千代田区東神田1-12-13,指定避難所,-1,-1,0,0,0,0,0,1,1,,35.6945699991,139.781071,17
13101,都立九段高校,東京都千代田区九段北2-2-1,指定避難所,-1,-1,0,0,0,0,0,1,1,,35.6960959991,139.747406,18
13101,都立日比谷高校,東京都千代田区永田町2-16-1,指定避難所,-1,-1,0,0,0,0,0,1,1,,35.676043,139.739435,19
13101,番町小学校,東京都千代田区六番町8,指定避難所,-1,-1,0,0,0,0,0,1,1,,35.688069,139.734074,20
13101,富士見小学校,東京都千代田区富士見1-1-6,指定避難所、地区救援センター,-1,-1,0,0,0,0,0,1,1,,35.697402,139.746128,21
13102,ほっとプラザはるみ,東京都中央区晴海5-2-3,拠点避難所,285,-1,0,0,0,0,0,1,3,,35.6518051004,139.77494355,22
13102,介護老人保健施設「リハポート明石」,東京都中央区明石町1-6,広域福祉避難所,145,-1,0,0,0,0,0,1,3,,35.669420992,139.776699435,23
13102,久松小学校,東京都中央区久松町7-2,避難所,1560,-1,0,0,0,0,0,1,1,,35.688958,139.784559,24
13102,京華スクエア（１、２階）,東京都中央区八丁堀3-17-9,避難所,981,-1,0,0,0,0,0,1,3,,35.6749963649,139.775571027,25
13102,京橋プラザ,東京都中央区銀座1-25-3,避難所,1008,-1,0,0,0,0,0,1,1,,35.673246,139.771717,26
13102,京橋築地小学校,東京都中央区築地2-13-1,避難所,1720,-1,0,0,0,0,0,1,1,,35.667989,139.771405,27
13102,教育センター,東京都中央区明石町12-1,広域福祉避難所,94,-1,0,0,0,0,0,1,3,,35.666526551,139.776905276,28
13102,銀座中学校,東京都中央区銀座8-19-15,避難所,2090,-1,0,0,0,0,0,1,1,,35.665628,139.764934,29
13102,月島児童館,東京都中央区月島4-1-1,拠点避難所,918,-1,0,0,0,0,0,1,1,,35.66199,139.782293,30
13102,月島社会教育会館,東京都中央区月島4-1-1,地域福祉避難所,140,-1,0,0,0,0,0,1,1,,35.661999,139.782189,31
13102,月島社会教育会館晴海分館「アートはるみ」,東京都中央区晴海1-4-1,地域福祉避難所,120,-1,0,0,0,0,0,1,1,,35.658869,139.785619,32
13102,月島第一小学校,東京都中央区月島4-15-1,避難所,1420,-1,0,0,0,0,0,1,1,,35.660851,139.780266,33
13102,月島第三小学校,東京都中央区晴海1-4-1,避難所,1840,-1,0,0,0,0,0,1,1,,35.658879,139.785626,34
13102,月島第二小学校,東京都中央区勝どき1-12-2,避難所,1620,-1,0,0,0,0,0,1,1,,35.660212,139.775822,35
13102,阪本小学校,東京都中央区兜町15-18,避難所,990,-1,0,0,0,0,0,1,1,,35.679738,139.77671,36
13102,十思スクエア,東京都中央区小伝馬町5-1,避難所,1660,-1,0,0,0,0,0,1,3,,35.6908724369,139.776993942,37
13102,城東小学校,東京都中央区八重洲2-2-2,避難所,940,-1,0,0,0,0,0,1,1,,35.679349,139.769211,38
13102,常盤小学校,東京都中央区本石町4-4-26,避難所,890,-1,0,0,0,0,0,1,1,,35.688459,139.770627,39
13102,新川区民館,東京都中央区新川1-26-1,拠点避難所,366,-1,0,0,0,0,0,1,1,,35.676414,139.783724,40
13102,晴海中学校,東京都中央区晴海1-5-3,避難所,1850,-1,0,0,0,0,0,1,1,,35.659546,139.784849,41
13102,泰明小学校,東京都中央区銀座5-1-13,避難所,930,-1,0,0,0,0,0,1,1,,35.672433,139.761767,42
13102,築地社会教育会館,東京都中央区築地4-15-1,地域福祉避難所,310,-1,0,0,0,0,0,1,1,,35.666379,139.768151,44
13102,中央小学校,東京都中央区湊1-4-1,避難所,710,-1,0,0,0,0,0,1,1,,35.672294,139.778738,45
13102,佃児童館シニアセンター,東京都中央区佃1-11-1,地域福祉避難所,170,-1,0,0,0,0,0,1,3,,35.6689059991,139.784737,46
13102,佃中学校,東京都中央区佃2-3-2,避難所,2380,-1,0,0,0,0,0,1,1,,35.667989,139.784987,47
13102,佃島小学校,東京都中央区佃2-3-1,避難所,2000,-1,0,0,0,0,0,1,1,,35.668572,139.784599,48
13102,特別養護老人ホーム「マイホームはるみ」,東京都中央区晴海1-5-1,広域福祉避難所,60,-1,0,0,0,0,0,1,1,,35.659962,139.78471,49
13102,特別養護老人ホーム「マイホーム新川」,東京都中央区新川2-27-3,広域福祉避難所,40,-1,0,0,0,0,0,1,1,,35.6731,139.783821,50
13102,日本橋公会堂集会室,東京都中央区日本橋蛎殻町1-31-1,拠点避難所,513,-1,0,0,0,0,0,1,1,,35.682486,139.784321,51
13102,日本橋社会教育会館,東京都中央区日本橋人形町1-1-17,地域福祉避難所,130,-1,0,0,0,0,0,1,1,,35.684771,139.781394,52
13102,日本橋小学校,東京都中央区人形町1-1-17,避難所,1240,-1,0,0,0,0,0,1,1,,35.684848,139.781377,53
13102,日本橋中学校,東京都中央区東日本橋1-10-1,避難所,1680,-1,0,0,0,0,0,1,1,,35.692459,139.787071,54
13102,浜町敬老館浜町児童館浜町区民館,東京都中央区日本橋浜町3-37-1,地域福祉避難所,180,-1,0,0,0,0,0,1,1,,35.685488,139.791461,55
13102,福祉センター,東京都中央区明石町12-1,広域福祉避難所,220,-1,0,0,0,0,0,1,1,,35.666489,139.776905,56
13102,豊海小学校,東京都中央区勝どき6-6-2,避難所,1140,-1,0,0,0,0,0,1,1,,35.654379,139.77285,57
13102,明正小学校,東京都中央区新2-13-4,避難所,1000,-1,0,0,0,0,0,1,1,,35.676016,139.782126,58
13102,明石小学校,東京都中央区明石町1-15,避難所,930,-1,0,0,0,0,0,1,1,,35.668683,139.77621,59
13102,有馬小学校,東京都中央区蛎殻町2-10-23,避難所,1760,-1,0,0,0,0,0,1,1,,35.683533,139.787635,60
13103,エコプラザ,東京都港区浜松町1-13-1,避難所,-1,-1,0,0,0,0,0,1,3,,35.65879,139.756913,61
13103,サンサン赤坂,東京都港区赤坂6-6-14,避難所,888,888,0,0,0,0,0,1,3,,35.669966,139.737631,62
13103,旧赤坂小学校,東京都港区赤坂4-1-26,避難所,270,270,0,0,0,0,0,1,3,,35.6761376589,139.734547567,63
13103,旧南海小学校,東京都港区三田3-4-22,避難所,306,306,0,0,0,0,0,1,3,,35.6460641126,139.743137556,64
13103,旧飯倉小学校,東京都港区東麻布2-1-1,避難所,419,419,0,0,0,0,0,1,3,,35.6582011071,139.742603536,65
13103,旧鞆絵小学校,東京都港区虎ノ門3-6-9,避難所,556,556,0,0,0,0,0,1,3,,35.6659166833,139.745619608,66
13103,虎ノ門健康福祉館（とらトピア）,東京都港区虎ノ門1-21-10,二次避難所、福祉避難所,132,132,0,0,0,0,0,1,3,,35.667839,139.748732,67
13103,御成門小学校,東京都港区芝公園3-2-4,避難所,2104,2104,0,0,0,0,0,1,1,,35.661156,139.749629,68
13103,御成門中学校,東京都港区西新橋3-25-30,避難所,2536,2536,0,0,0,0,0,1,1,,35.661572,139.750518,69
13103,御田小学校,東京都港区三田4-11-38,避難所,1213,1213,0,0,0,0,0,1,1,,35.643085,139.738079,70
13103,港勤労福祉会館,東京都港区芝5-18-2,避難所,651,651,0,0,0,0,0,1,1,,35.648033,139.748494,71
13103,港区スポーツセンター,東京都港区芝浦3-1-19,避難所,4457,4457,0,0,0,0,0,1,1,,35.6455,139.75003,72
13103,港南健康福祉館,東京都港区港南4-2-1,二次避難所、福祉避難所,191,191,0,0,0,0,0,1,3,,35.6293067034,139.747873536,73
13103,港南小学校,東京都港区港南4-3-6,避難所,2427,2427,0,0,0,0,0,1,1,,35.630909,139.750075,74
13103,港南中学校,東京都港区港南4-3-3,避難所,2236,2236,0,0,0,0,0,1,1,,35.63102,139.748936,75
13103,港陽小・中学校,東京都港区台場1-1-5,避難所,3360,3360,0,0,0,0,0,1,1,,35.633842,139.777236,76
13103,高松中学校,東京都港区高輪1-16-25,避難所,2306,2306,0,0,0,0,0,1,1,,35.641463,139.734104,77
13103,高陵中学校,東京都港区西麻布4-14-8,避難所,-1,-1,0,0,0,0,0,1,1,,35.656794,139.720216,78
13103,高輪区民センター,東京都港区高輪1-16-25,避難所,393,393,0,0,0,0,0,1,1,,35.641956,139.734082,79
13103,高輪台小学校,東京都港区高輪2-8-24,避難所,943,943,0,0,0,0,0,1,1,,35.63638,139.734271,80
13103,高輪福祉会館,東京都港区高輪3-18-15,二次避難所、福祉避難所,138,138,0,0,0,0,0,1,1,,35.63252,139.736187,81
13103,三光小学校,東京都港区白金3-18-2,避難所,1717,1717,0,0,0,0,0,1,1,,35.644379,139.729132,82
13103,三田中学校,東京都港区三田4-13-10,避難所,-1,-1,0,0,0,0,0,1,1,,35.645341,139.740862,83
13103,三田中学校仮校舎（旧芝浜中学校）,東京都港区三田3-5-24,避難所,1191,1191,0,0,0,0,0,1,3,,35.6449962307,139.742757492,84
13103,三田福祉会館,東京都港区芝4-1-17,二次避難所、福祉避難所,332,332,0,0,0,0,0,1,1,,35.648824,139.749574,85
13103,芝浦港南区民センター,東京都港区芝浦4-13-1,避難所,433,433,0,0,0,0,0,1,1,,35.64057,139.748634,86
13103,芝浦小学校,東京都港区芝浦3-1-20,避難所,1339,1339,0,0,0,0,0,1,1,,35.645185,139.74888,87
13103,芝公園福祉会館,東京都港区芝公園2-7-3,二次避難所、福祉避難所,250,250,0,0,0,0,0,1,1,,35.654228,139.750713,88
13103,芝小学校,東京都港区芝2-21-3,避難所,855,855,0,0,0,0,0,1,1,,35.651129,139.750074,89
13103,障害保健福祉センター,東京都港区芝1-8-23,二次避難所、福祉避難所,526,526,0,0,0,0,0,1,1,,35.65149,139.755602,90
13103,新橋福祉会館,東京都港区新橋6-4-2,二次避難所、福祉避難所,148,148,0,0,0,0,0,1,1,,35.662156,139.754129,91
13103,神応小学校,東京都港区白金6-9-5,避難所,1104,1104,0,0,0,0,0,1,1,,35.643602,139.724438,92
13103,生涯学習センター,東京都港区新橋3-16-3,避難所,838,838,0,0,0,0,0,1,3,,35.6655216232,139.757091232,93
13103,西麻布福祉会館,東京都港区西麻布2-13-3,二次避難所、福祉避難所,122,122,0,0,0,0,0,1,1,,35.660405,139.722882,94
13103,青山小学校,東京都港区南青山2-21-2,避難所,1691,1691,0,0,0,0,0,1,1,,35.669849,139.719132,95
13103,青山中学校,東京都港区北青山1-1-9,避難所,2621,2621,0,0,0,0,0,1,1,,35.673987,139.722826,96
13103,青山福祉会館,東京都港区南青山2-16-5,二次避難所、福祉避難所,585,585,0,0,0,0,0,1,1,,35.669126,139.72116,97
13103,青南小学校,東京都港区南青山4-21-15,避難所,1723,1723,0,0,0,0,0,1,1,,35.663488,139.716132,98
13103,青南福祉会館,東京都港区南青山4-10-1,二次避難所、福祉避難所,138,138,0,0,0,0,0,1,1,,35.666654,139.71766,99
13103,赤羽小学校,東京都港区三田1-4-52,避難所,1597,1597,0,0,0,0,0,1,1,,35.653212,139.74238,100
13103,赤坂区民センター,東京都港区赤坂4-18-13,避難所,475,475,0,0,0,0,0,1,1,,35.674749,139.731634,101
13103,赤坂小学校,東京都港区赤坂8-13-29,避難所,2001,2001,0,0,0,0,0,1,1,,35.669404,139.731131,102
13103,赤坂中学校,東京都港区赤坂9-2-3,避難所,1114,1114,0,0,0,0,0,1,1,,35.668349,139.730714,103
13103,赤坂福祉会館,東京都港区赤坂6-4-8,二次避難所、福祉避難所,118,118,0,0,0,0,0,1,1,,35.670154,139.734408,104
13103,台場区民センター,東京都港区台場1-5-1,避難所,298,298,0,0,0,0,0,1,1,,35.629892,139.77717,105
13103,男女平等参画センター,東京都港区芝浦3-1-47,避難所,552,552,0,0,0,0,0,1,3,,35.645664,139.749033,106
13103,朝日中学校,東京都港区白金4-1-12,避難所,1703,1703,0,0,0,0,0,1,1,,35.643602,139.726715,107
13103,東町小学校,東京都港区南麻布1-8-11,避難所,1073,1073,0,0,0,0,0,1,1,,35.650823,139.735853,108
13103,南山小学校,東京都港区元麻布3-8-15,避難所,1173,1173,0,0,0,0,0,1,1,,35.657156,139.73102,109
13103,南麻布福祉会館,東京都港区南麻布1-5-26,二次避難所、福祉避難所,224,224,0,0,0,0,0,1,1,,35.656156,139.730699,110
13103,白金小学校,東京都港区白金台1-4-26,避難所,1805,1805,0,0,0,0,0,1,1,,35.636825,139.728577,111
13103,白金台福祉会館,東京都港区白金台4-8-5,二次避難所、福祉避難所,424,424,0,0,0,0,0,1,1,,35.63763,139.724938,112
13103,白金福祉会館,東京都港区白金3-10-12,二次避難所、福祉避難所,129,129,0,0,0,0,0,1,1,,35.644963,139.731048,113
13103,飯倉福祉会館,東京都港区東麻布2-16-11,二次避難所、福祉避難所,157,157,0,0,0,0,0,1,1,,35.656971,139.74081,114
13103,福祉プラザさくら川,東京都港区新橋6-19-2,避難所,189,189,0,0,0,0,0,1,3,,35.6610755839,139.753929795,115
13103,豊岡福祉会館,東京都港区三田5-7-7,二次避難所、福祉避難所,121,121,0,0,0,0,0,1,1,,35.646296,139.739548,116
13103,本村小学校,東京都港区南麻布3-9-33,避難所,2017,2017,0,0,0,0,0,1,1,,35.649712,139.729715,117
13103,本村福祉会館,東京都港区南麻布3-5-15,二次避難所、福祉避難所,149,149,0,0,0,0,0,1,1,,35.651267,139.730104,118
13103,麻布区民センター,東京都港区六本木5-16-45,避難所,326,326,0,0,0,0,0,1,1,,35.660648,139.735012,119
13103,麻布小学校,東京都港区麻布台1-5-15,避難所,1435,1435,0,0,0,0,0,1,1,,35.661933,139.738603,120
13103,六本木中学校,東京都港区六本木6-8-16,避難所,1534,1534,0,0,0,0,0,1,1,,35.660834,139.731829,121
13103,笄小学校,東京都港区西麻布3-11-16,避難所,1412,1412,0,0,0,0,0,1,1,,35.656378,139.724854,122
13104,あゆみの家,東京都新宿区西落合1-30-10,二次避難所、福祉避難所,-1,-1,0,0,0,0,0,1,1,,35.720675,139.678911,123
13104,下落合地域交流館,東京都新宿区下落合3-12-33,二次避難所、福祉避難所,-1,-1,0,0,0,0,0,1,3,,35.721242,139.699507,124
13104,高田馬場シニア活動館,東京都新宿区高田馬場3-39-29,二次避難所、福祉避難所,-1,-1,0,0,0,0,0,1,3,,35.7121589991,139.695959,125
13104,高田馬場第一児童館,東京都新宿区高田馬場3-18-21,二次避難所、福祉避難所,-1,-1,0,0,0,0,0,1,4,,35.7142024601,139.697761987,126
13104,高田馬場福祉作業所,東京都新宿区百人町4-4-2,二次避難所、福祉避難所,-1,-1,0,0,0,0,0,1,1,,35.709066,139.702021,127
13104,山吹町地域交流館,東京都新宿区山吹町342,二次避難所、福祉避難所,-1,-1,0,0,0,0,0,1,1,,35.708014,139.729607,128
13104,障害者福祉センター,東京都新宿区戸山1-22-2,二次避難所、福祉避難所,-1,-1,0,0,0,0,0,1,4,,35.703386516,139.717609738,129
13104,上落合児童館,東京都新宿区上落合2-28-8,二次避難所、福祉避難所,-1,-1,0,0,0,0,0,1,1,,35.711065,139.685439,130
13104,上落合地域交流館,東京都新宿区上落合2-28-8,二次避難所、福祉避難所,-1,-1,0,0,0,0,0,1,3,,35.711018,139.685395,131
13104,信濃町シニア活動館,東京都新宿区信濃町20,二次避難所、福祉避難所,-1,-1,0,0,0,0,0,1,3,,35.683399535,139.720169205,132
13104,新宿生活実習所,東京都新宿区弁天町50,二次避難所、福祉避難所,-1,-1,0,0,0,0,0,1,3,,35.703717,139.727105,133
13104,新宿地域交流館,東京都新宿区新宿5-3-13,二次避難所、福祉避難所,-1,-1,0,0,0,0,0,1,3,,35.6930578583,139.71101813,134
13104,新宿福祉作業所,東京都新宿区戸山1-22-12,二次避難所、福祉避難所,-1,-1,0,0,0,0,0,1,1,,35.703706,139.717409,135
13104,西新宿児童館,東京都新宿区西新宿4-35-28,二次避難所、福祉避難所,-1,-1,0,0,0,0,0,1,1,,35.686413,139.68677,136
13104,西早稲田地域交流館,東京都新宿区西早稲田1-22-2,二次避難所、福祉避難所,-1,-1,0,0,0,0,0,1,1,,35.711811,139.717889,137
13104,早稲田南町児童館,東京都新宿区早稲田南町50,二次避難所、福祉避難所,-1,-1,0,0,0,0,0,1,1,,35.705093,139.722185,138
13104,早稲田南町地域交流館,東京都新宿区早稲田南町50,二次避難所、福祉避難所,-1,-1,0,0,0,0,0,1,1,,35.705214,139.722413,139
13104,百人町ことぶき館,東京都新宿区百人町2-18-21,二次避難所、福祉避難所,-1,-1,0,0,0,0,0,1,1,,35.703342,139.698172,140
13104,百人町児童館,東京都新宿区百人町2-18-21,二次避難所、福祉避難所,-1,-1,0,0,0,0,0,1,1,,35.703291,139.698109,141
13104,富久町児童館,東京都新宿区富久町22-21,二次避難所、福祉避難所,-1,-1,0,0,0,0,0,1,1,,35.694068,139.715631,142
13104,北新宿第一児童館,東京都新宿区北新宿2-3-7,二次避難所、福祉避難所,-1,-1,0,0,0,0,0,1,1,,35.698456,139.690244,143
13104,北新宿地域交流館,東京都新宿区北新宿2-3-7,二次避難所、福祉避難所,-1,-1,0,0,0,0,0,1,3,,35.6985260485,139.690115571,144
13104,愛日小学校,東京都新宿区北町26,避難所、一時避難所,-1,-1,0,0,0,0,0,1,1,,35.699734,139.734046,145
13104,榎町子ども家庭支援センター,東京都新宿区榎町36,二次避難所、福祉避難所,-1,-1,0,0,0,0,0,1,4,,35.7045949991,139.727685,146
13104,花園小学校,東京都新宿区新宿1-22-1,一時避難所、避難所,-1,-1,0,0,0,0,0,1,1,,35.689652,139.713548,147
13104,花園幼稚園,東京都新宿区新宿1-22-1,二次避難所、福祉避難所,-1,-1,0,0,0,0,0,1,1,,35.689568,139.713604,148
13104,学習院女子大学、学習院女子中・高等科,東京都新宿区戸山3-20-1,一時避難所,-1,-1,0,0,0,0,0,1,1,,35.706879,139.713567,149
13104,牛込第一中学校,東京都新宿区北山伏町4-1,一時避難所、避難所,-1,-1,0,0,0,0,0,1,1,,35.700345,139.730435,150
13104,牛込第三中学校,東京都新宿区市谷加賀町1-3-1,一時避難所、避難所,-1,-1,0,0,0,0,0,1,1,,35.697679,139.731685,151
13104,牛込第二中学校,東京都新宿区喜久井町20,一時避難所、避難所,-1,-1,0,0,0,0,0,1,1,,35.704484,139.723102,152
13104,牛込仲之小学校,東京都新宿区市谷仲之町4-33,一時避難所、避難所,-1,-1,0,0,0,0,0,1,1,,35.695846,139.723686,153
13104,牛込仲之幼稚園,東京都新宿区市谷仲之町4-33,二次避難所、福祉避難所,-1,-1,0,0,0,0,0,1,1,,35.69579,139.723575,154
13104,戸山ことぶき館,東京都新宿区戸山2-27-2,二次避難所、福祉避難所,-1,-1,0,0,0,0,0,1,1,,35.704526,139.710989,155
13104,戸山小学校,東京都新宿区百人町2-1-38,一時避難所,-1,-1,0,0,0,0,0,1,1,,35.704261,139.702021,156
13104,戸山幼稚園,東京都新宿区百人町2-1-38,二次避難所、福祉避難所,-1,-1,0,0,0,0,0,1,1,,35.7038999991,139.701938,157
13104,戸塚第一小学校,東京都新宿区西早稲田3-10-12,一時避難所、避難所,-1,-1,0,0,0,0,0,1,1,,35.711219,139.714689,158
13104,戸塚第一幼稚園,東京都新宿区西早稲田3-10-12,二次避難所、福祉避難所,-1,-1,0,0,0,0,0,1,1,,35.710955,139.714714,159
13104,戸塚第三小学校,東京都新宿区高田馬場3-18-21,一時避難所,-1,-1,0,0,0,0,0,1,1,,35.714843,139.697604,160
13104,戸塚第二小学校,東京都新宿区高田馬場1-25-21,避難所、一時避難所,-1,-1,0,0,0,0,0,1,1,,35.712593,139.705881,161
13104,戸塚第二幼稚園,東京都新宿区高田馬場1-25-21,二次避難所、福祉避難所,-1,-1,0,0,0,0,0,1,1,,35.712149,139.706104,162
13104,江戸川小学校,東京都新宿区水道町1-28,一時避難所,-1,-1,0,0,0,0,0,1,1,,35.707095,139.736351,163
13104,高田馬場第二児童館・ことぶき館,東京都新宿区高田馬場1-4-17,二次避難所、福祉避難所,-1,-1,0,0,0,0,0,1,1,,35.711063,139.709299,164
13104,高齢者いこいの家清風園,東京都新宿区中落合1-7-26,二次避難所、福祉避難所,-1,-1,0,0,0,0,0,1,1,,35.717623,139.690547,165
13104,四谷ひろば,東京都新宿区四谷4-20,一時避難所、避難所,-1,-1,0,0,0,0,0,1,3,,35.6895193093,139.717845058,166
13104,四谷小学校,東京都新宿区四谷2-6,一時避難所、避難所,-1,-1,0,0,0,0,0,1,3,,35.68665,139.724953,167
13104,四谷第六小学校,東京都新宿区大京町30,一時避難所、避難所,-1,-1,0,0,0,0,0,1,1,,35.681653,139.71566,168
13104,四谷第六幼稚園,東京都新宿区大京町30,二次避難所、福祉避難所,-1,-1,0,0,0,0,0,1,1,,35.681764,139.716048,169
13104,四谷中学校,東京都新宿区四谷1-12,避難所、一時避難所,-1,-1,0,0,0,0,0,1,1,,35.684486,139.728519,170
13104,子ども総合センター,東京都新宿区新宿7-3-29,二次避難所、福祉避難所,-1,-1,0,0,0,0,0,1,3,,35.7007955107,139.712311409,171
13104,市谷小学校,東京都新宿区市谷山伏町1-3,一時避難所,-1,-1,0,0,0,0,0,1,1,,35.699818,139.728741,172
13104,市谷幼稚園,東京都新宿区市谷山伏町1-3,二次避難所、福祉避難所,-1,-1,0,0,0,0,0,1,1,,35.699734,139.728685,173
13104,信濃町子ども家庭支援センター,東京都新宿区信濃町20,二次避難所、福祉避難所,-1,-1,0,0,0,0,0,1,4,,35.683301,139.720322,174
13104,新宿西戸山中学校,東京都新宿区百人町4-3-1,一時避難所、避難所,-1,-1,0,0,0,0,0,1,1,,35.7085379991,139.700799,175
13104,新宿中学校,東京都新宿区新宿6-15-22,一時避難所、避難所,-1,-1,0,0,0,0,0,1,4,,35.6957382053,139.710696249,176
13104,新宿養護学校,東京都新宿区西新宿4-20-11,二次避難所、福祉避難所,-1,-1,0,0,0,0,0,1,1,,35.68829,139.686162,177
13104,成城学校,東京都新宿区原町3-87,一時避難所,-1,-1,0,0,0,0,0,1,1,,35.6985949991,139.723103,178
13104,西戸山小学校,東京都新宿区百人町4-2-1,一時避難所、避難所,-1,-1,0,0,0,0,0,1,1,,35.708094,139.699604,179
13104,西戸山幼稚園,東京都新宿区百人町4-7-1,二次避難所、福祉避難所,-1,-1,0,0,0,0,0,1,1,,35.708871,139.695688,180
13104,西新宿ことぶき館,東京都新宿区西新宿4-8-35,二次避難所、福祉避難所,-1,-1,0,0,0,0,0,1,1,,35.688671,139.684302,181
13104,西新宿小学校,東京都新宿区西新宿4-35-5,避難所、一時避難所,-1,-1,0,0,0,0,0,1,1,,35.686374,139.687662,182
13104,西新宿中学校,東京都新宿区西新宿8-2-44,一時避難所、避難所,-1,-1,0,0,0,0,0,1,1,,35.695942,139.694819,183
13104,西早稲田中学校,東京都新宿区戸山3-20-2,一時避難所、避難所,-1,-1,0,0,0,0,0,1,1,,35.707703,139.709758,184
13104,西落合児童館,東京都新宿区西落合1-31-24,二次避難所、福祉避難所,-1,-1,0,0,0,0,0,1,1,,35.7197,139.679606,185
13104,早稲田小学校,東京都新宿区早稲田南町25,一時避難所,-1,-1,0,0,0,0,0,1,1,,35.703956,139.723436,186
13104,早稲田大学（戸山キャンパス）,東京都新宿区戸山1-24-1,避難所、一時避難所,-1,-1,0,0,0,0,0,1,1,,35.70523,139.718156,187
13104,早稲田大学（早稲田キャンパス）,東京都新宿区西早稲田1-6-1,避難所、一時避難所,-1,-1,0,0,0,0,0,1,1,,35.709761,139.718741,188
13104,早稲田幼稚園,東京都新宿区早稲田南町25,二次避難所、福祉避難所,-1,-1,0,0,0,0,0,1,1,,35.7039,139.723519,190
13104,大久保ことぶき館,東京都新宿区大久保1-4-1,二次避難所、福祉避難所,-1,-1,0,0,0,0,0,1,1,,35.699881,139.706896,191
13104,大久保小学校,東京都新宿区大久保1-1-21,避難所、一時避難所,-1,-1,0,0,0,0,0,1,1,,35.69965,139.70591,192
13104,大久保幼稚園,東京都新宿区大久保1-1-21,二次避難所、福祉避難所,-1,-1,0,0,0,0,0,1,1,,35.699623,139.705715,193
13104,中井児童館,東京都新宿区中井1-8-12,二次避難所、福祉避難所,-1,-1,0,0,0,0,0,1,1,,35.71462,139.684133,195
13104,中町児童館・ことぶき館,東京都新宿区中町25,二次避難所、福祉避難所,-1,-1,0,0,0,0,0,1,1,,35.69896,139.734706,196
13104,中落合ことぶき館,東京都新宿区中落合2-7-24,二次避難所、福祉避難所,-1,-1,0,0,0,0,0,1,1,,35.717956,139.69398,197
13104,中落合子ども家庭支援センター,東京都新宿区中落合2-7-24,二次避難所、福祉避難所,-1,-1,0,0,0,0,0,1,1,,35.717794,139.693836,198
13104,津久戸小学校,東京都新宿区津久戸町2-2,一時避難所、避難所,-1,-1,0,0,0,0,0,1,1,,35.702957,139.742017,199
13104,津久戸幼稚園,東京都新宿区津久戸町2-2,二次避難所、福祉避難所,-1,-1,0,0,0,0,0,1,1,,35.702707,139.74199,200
13104,鶴巻小学校,東京都新宿区早稲田鶴巻町140,一時避難所,-1,-1,0,0,0,0,0,1,1,,35.708594,139.725019,201
13104,鶴巻幼稚園,東京都新宿区早稲田鶴巻町140,二次避難所、福祉避難所,-1,-1,0,0,0,0,0,1,1,,35.708289,139.724824,202
13104,天神小学校,東京都新宿区新宿6-14-2,一時避難所,-1,-1,0,0,0,0,0,1,1,,35.695623,139.710021,203
13104,都立戸山高等学校,東京都新宿区戸山3-19-1,一時避難所,-1,-1,0,0,0,0,0,1,1,,35.707122,139.710853,204
13104,都立新宿高等学校,東京都新宿区内藤町8,一時避難所,-1,-1,0,0,0,0,0,1,1,,35.688478,139.705121,205
13104,都立新宿山吹高等学校,東京都新宿区山吹町81,一時避難所,-1,-1,0,0,0,0,0,1,1,,35.706984,139.728352,206
13104,東京医科大学,東京都新宿区新宿6-1-1,一時避難所,-1,-1,0,0,0,0,0,1,1,,35.693679,139.712048,207
13104,東京富士大学（高田記念館）,東京都新宿区下落合1-7-7,一時避難所,-1,-1,0,0,0,0,0,1,3,,35.715332,139.700001,208
13104,東戸山小学校,東京都新宿区戸山2-34-2,一時避難所、避難所,-1,-1,0,0,0,0,0,1,1,,35.702539,139.71152,209
13104,東五軒町児童館・ことぶき館,東京都新宿区東五軒町5-24,二次避難所、福祉避難所,-1,-1,0,0,0,0,0,1,1,,35.706562,139.740248,210
13104,柏木小学校,東京都新宿区北新宿2-11-1,一時避難所,-1,-1,0,0,0,0,0,1,1,,35.700511,139.6893,211
13104,富久小学校,東京都新宿区富久町7-24,一時避難所、避難所,-1,-1,0,0,0,0,0,1,1,,35.6923353932,139.716496335,212
13104,北山伏児童館・ことぶき館,東京都新宿区北山伏町2-17,二次避難所、福祉避難所,-1,-1,0,0,0,0,0,1,1,,35.700335,139.729907,214
13104,北新宿第二児童館・ことぶき館,東京都新宿区北新宿3-20-2,二次避難所、福祉避難所,-1,-1,0,0,0,0,0,1,1,,35.702893,139.689624,215
13104,本塩町児童館・ことぶき館,東京都新宿区本塩町8,二次避難所、福祉避難所,-1,-1,0,0,0,0,0,1,1,,35.688533,139.729363,216
13104,薬王寺児童館・ことぶき館,東京都新宿区市谷薬王寺町51,二次避難所、福祉避難所,-1,-1,0,0,0,0,0,1,1,,35.695986,139.724671,217
13104,余丁町小学校,東京都新宿区若松町13-1,一時避難所、避難所,-1,-1,0,0,0,0,0,1,1,,35.699241,139.715813,218
13104,余丁町幼稚園,東京都新宿区若松町13-1,二次避難所、福祉避難所,-1,-1,0,0,0,0,0,1,1,,35.699345,139.716103,219
13104,淀橋第四小学校,東京都新宿区北新宿3-17-1,一時避難所、避難所,-1,-1,0,0,0,0,0,1,1,,35.704094,139.691105,220
13104,淀橋第四幼稚園,東京都新宿区北新宿3-17-1,二次避難所、福祉避難所,-1,-1,0,0,0,0,0,1,1,,35.703927,139.690827,221
13104,落合第一小学校,東京都新宿区中落合2-13-27,一時避難所、避難所,-1,-1,0,0,0,0,0,1,1,,35.719537,139.691521,222
13104,落合第五小学校,東京都新宿区上落合3-1-6,一時避難所、避難所,-1,-1,0,0,0,0,0,1,1,,35.714648,139.685744,223
13104,落合第五幼稚園,東京都新宿区上落合3-1-6,二次避難所、福祉避難所,-1,-1,0,0,0,0,0,1,1,,35.71462,139.685605,224
13104,落合第三小学校,東京都新宿区西落合1-12-20,一時避難所,-1,-1,0,0,0,0,0,1,1,,35.720758,139.68255,225
13104,落合第三幼稚園,東京都新宿区西落合1-12-20,二次避難所、福祉避難所,-1,-1,0,0,0,0,0,1,1,,35.720814,139.68255,226
13104,落合第四小学校,東京都新宿区下落合2-9-34,一時避難所,-1,-1,0,0,0,0,0,1,1,,35.7183287492,139.700157217,227
13104,落合第四幼稚園,東京都新宿区下落合2-9-34,二次避難所、福祉避難所,-1,-1,0,0,0,0,0,1,1,,35.718315,139.700187,228
13104,落合第二小学校,東京都新宿区上落合2-10-23,避難所、一時避難所,-1,-1,0,0,0,0,0,1,1,,35.712954,139.689188,229
13104,落合第二中学校,東京都新宿区西落合1-6-5,一時避難所、避難所,-1,-1,0,0,0,0,0,1,1,,35.721453,139.684438,230
13104,落合第六小学校,東京都新宿区西落合4-11-21,一時避難所、避難所,-1,-1,0,0,0,0,0,1,1,,35.727285,139.678522,231
13104,落合中学校,東京都新宿区下落合2-24-6,一時避難所、避難所,-1,-1,0,0,0,0,0,1,1,,35.718787,139.700243,232
13105,お茶の水女子大学一帯,東京都文京区,避難場所,49900,-1,0,0,0,0,0,1,1,,35.7187879991,139.732629,233
13105,しおみ児童館,東京都文京区千駄木2-27-8,避難所,-1,-1,0,0,0,0,0,1,1,,35.7250549991,139.76203,234
13105,駕籠町小学校,東京都文京区本駒込2-29-6,避難所,-1,-1,0,0,0,0,0,1,1,,35.728315,139.745905,235
13105,関口台町小学校,東京都文京区関口2-6-1,避難所,-1,-1,0,0,0,0,0,1,1,,35.7119,139.726852,236
13105,久堅児童館,東京都文京区小石川5-27-7,避難所,-1,-1,0,0,0,0,0,1,4,,35.7185939991,139.741545,237
13105,旧元町小学校,東京都文京区本郷1-1-19,避難所,-1,-1,0,0,0,0,0,1,3,,35.7028892926,139.757866724,238
13105,教育の森公園一帯,東京都文京区大塚3-29,避難場所,16600,-1,0,0,0,0,0,1,1,,35.71993707,139.73632135,239
13105,金富小学校,東京都文京区春日2-6-15,避難所,-1,-1,0,0,0,0,0,1,1,,35.710733,139.741462,240
13105,駒本小学校,東京都文京区向丘2-37-5,避難所,-1,-1,0,0,0,0,0,1,1,,35.72451,139.754321,241
13105,窪町小学校,東京都文京区大塚3-2-3,避難所,-1,-1,0,0,0,0,0,1,1,,35.718871,139.735712,242
13105,後楽園一帯,東京都文京区,避難場所,177600,198400,0,0,0,0,0,1,1,,35.70534,139.7494,243
13105,後楽幼稚園,東京都文京区後楽1-7-7,避難所,-1,-1,0,0,0,0,0,1,1,,35.706373,139.746906,244
13105,護国寺一帯,東京都文京区,避難場所,13000,75700,0,0,0,0,0,1,3,,35.721718,139.725693,245
13105,根津児童館,東京都文京区根津1-14-3,避難所,-1,-1,0,0,0,0,0,1,1,,35.718276,139.763476,246
13105,根津小学校,東京都文京区根津1-14-3,避難所,-1,-1,0,0,0,0,0,1,1,,35.718567,139.763182,247
13105,根津幼稚園,東京都文京区根津1-14-2,避難所,-1,-1,0,0,0,0,0,1,1,,35.718594,139.763182,248
13105,指ケ谷小学校,東京都文京区白山2-28-4,避難所,-1,-1,0,0,0,0,0,1,1,,35.717289,139.750655,249
13105,汐見小学校,東京都文京区千駄木2-19-23,避難所,-1,-1,0,0,0,0,0,1,1,,35.723816,139.760682,250
13105,小石川植物園,東京都文京区白山3-7-1,避難場所,29100,59700,0,0,0,0,0,1,3,,35.718547,139.746464,251
13105,小日向台町児童館,東京都文京区小日向2-2-2,避難所,-1,-1,0,0,0,0,0,1,4,,35.7130419114,139.73486015,252
13105,小日向台町小学校,東京都文京区小日向2-3-8,避難所,-1,-1,0,0,0,0,0,1,1,,35.713129,139.735244,253
13105,小日向台町幼稚園,東京都文京区小日向2-2-2,避難所,-1,-1,0,0,0,0,0,1,1,,35.712955,139.734823,254
13105,昭和小学校,東京都文京区本駒込2-28-31,避難所,-1,-1,0,0,0,0,0,1,1,,35.73162,139.749294,255
13105,水道児童館,東京都文京区水道1-3-26,避難所,-1,-1,0,0,0,0,0,1,1,,35.709345,139.742073,256
13105,誠之小学校,東京都文京区西片2-14-6,避難所,-1,-1,0,0,0,0,0,1,1,,35.717844,139.753849,257
13105,青柳小学校,東京都文京区大塚5-40-18,避難所,-1,-1,0,0,0,0,0,1,1,,35.7215119296,139.724826377,258
13105,青柳幼稚園,東京都文京区大塚5-40-18,避難所,-1,-1,0,0,0,0,0,1,1,,35.72151,139.724824,259
13105,千石児童館,東京都文京区千石1-4-6,避難所,-1,-1,0,0,0,0,0,1,4,,35.7247869991,139.743155,260
13105,千石西児童館,東京都文京区千石3-15-15,避難所,-1,-1,0,0,0,0,0,1,4,,35.7247159991,139.738299,261
13105,千駄木小学校,東京都文京区千駄木5-44-2,避難所,-1,-1,0,0,0,0,0,1,1,,35.729149,139.759043,262
13105,千駄木幼稚園,東京都文京区千駄木5-43-3,避難所,-1,-1,0,0,0,0,0,1,1,,35.728649,139.757988,263
13105,大塚児童館,東京都文京区大塚6-22-19,避難所,-1,-1,0,0,0,0,0,1,1,,35.7246364151,139.725637835,264
13105,大塚小学校,東京都文京区大塚4-1-7,避難所,-1,-1,0,0,0,0,0,1,1,,35.72376,139.736517,265
13105,第一中学校,東京都文京区小石川5-8-9,避難所,-1,-1,0,0,0,0,0,1,1,,35.718038,139.738823,266
13105,第一幼稚園,東京都文京区西片2-17-6,避難所,-1,-1,0,0,0,0,0,1,1,,35.717455,139.755016,267
13105,第九中学校,東京都文京区本駒込3-28-9,避難所,-1,-1,0,0,0,0,0,1,1,,35.729648,139.752793,268
13105,第五中学校,東京都文京区小日向2-16-15,避難所,-1,-1,0,0,0,0,0,1,1,,35.710567,139.734573,269
13105,第三中学校,東京都文京区春日1-9-31,避難所,-1,-1,0,0,0,0,0,1,1,,35.70915,139.747072,270
13105,第七中学校,東京都文京区大塚2-2-2,避難所,-1,-1,0,0,0,0,0,1,1,,35.717927,139.730268,271
13105,第十中学校,東京都文京区千石2-40-17,避難所,-1,-1,0,0,0,0,0,1,1,,35.723399,139.7426,272
13105,第八中学校,東京都文京区千駄木2-19-22,避難所,-1,-1,0,0,0,0,0,1,1,,35.724205,139.76071,273
13105,第六中学校,東京都文京区向丘1-2-15,避難所,-1,-1,0,0,0,0,0,1,1,,35.717094,139.757766,274
13105,東京大学,東京都文京区本郷7-3-1,避難場所,123900,199200,0,0,0,0,0,1,1,,35.712522,139.763123,275
13105,湯島児童館,東京都文京区本郷3-10-18,避難所,-1,-1,0,0,0,0,0,1,4,,35.7038178239,139.76380971,276
13105,湯島小学校,東京都文京区湯島2-28-14,避難所,-1,-1,0,0,0,0,0,1,1,,35.70654,139.766432,277
13105,湯島幼稚園,東京都文京区本郷3-10-18,避難所,-1,-1,0,0,0,0,0,1,1,,35.7039569991,139.763599,278
13105,白山東児童館,東京都文京区白山1-29-10,避難所,-1,-1,0,0,0,0,0,1,1,,35.7191219991,139.753099,279
13105,文林中学校,東京都文京区千駄木5-25-10,避難所,-1,-1,0,0,0,0,0,1,1,,35.728038,139.758654,280
13105,本郷児童館,東京都文京区本郷5-30-8,避難所,-1,-1,0,0,0,0,0,1,1,,35.71165,139.758266,281
13105,本郷小学校,東京都文京区本郷4-5-15,避難所,-1,-1,0,0,0,0,0,1,1,,35.708095,139.758321,282
13105,本郷台中学校,東京都文京区本郷2-38-23,避難所,-1,-1,0,0,0,0,0,1,1,,35.707012,139.75896,283
13105,本駒込児童館,東京都文京区本駒込5-63-2,避難所,-1,-1,0,0,0,0,0,1,1,,35.73384,139.752317,284
13105,本駒込南児童館,東京都文京区本駒込3-11-14,避難所,-1,-1,0,0,0,0,0,1,1,,35.727732,139.755182,285
13105,本駒込幼稚園,東京都文京区本駒込4-35-15,避難所,-1,-1,0,0,0,0,0,1,1,,35.733315,139.755432,286
13105,明化小学校,東京都文京区千石1-13-9,避難所,-1,-1,0,0,0,0,0,1,1,,35.724899,139.744877,287
13105,明化幼稚園,東京都文京区千石1-13-9,避難所,-1,-1,0,0,0,0,0,1,1,,35.724982,139.74485,288
13105,目白台運動公園付近一帯,東京都文京区,避難場所,23200,59500,0,0,0,0,0,1,1,,35.71533297,139.72181486,289
13105,目白台児童館,東京都文京区目白台1-5-1,避難所,-1,-1,0,0,0,0,0,1,1,,35.713525,139.720855,290
13105,目白台第二児童館,東京都文京区目白台3-18-7,避難所,-1,-1,0,0,0,0,0,1,1,,35.717149,139.723463,291
13105,柳町児童館,東京都文京区小石川1-23-9,避難所,-1,-1,0,0,0,0,0,1,4,,35.7139219825,139.750320976,292
13105,柳町小学校,東京都文京区小石川1-23-16,避難所,-1,-1,0,0,0,0,0,1,1,,35.714317,139.750211,293
13105,柳町幼稚園,東京都文京区小石川1-23-6,避難所,-1,-1,0,0,0,0,0,1,1,,35.713706,139.750433,294
13105,林町小学校,東京都文京区千石2-36-3,避難所,-1,-1,0,0,0,0,0,1,1,,35.72426,139.741906,295
13105,六義園,東京都文京区,避難場所,31900,51700,0,0,0,0,0,1,1,,35.7322646,139.74625928,296
13105,礫川小学校,東京都文京区小石川2-13-2,避難所,-1,-1,0,0,0,0,0,1,1,,35.711011,139.747822,297
13105,茗台中学校,東京都文京区春日2-9-5,避難所,-1,-1,0,0,0,0,0,1,1,,35.713067,139.740739,298
13106,（仮称）清川２丁目福祉施設,東京都台東区清川2-14,避難所,-1,-1,0,0,0,0,0,1,3,,35.7272075253,139.801174785,299
13106,旧下谷小学校,東京都台東区東上野4-7-9,避難所,-1,-1,0,0,0,0,0,1,3,,35.7130593348,139.78012429,300
13106,旧済美小学校,東京都台東区寿1-10-9,避難所,-1,-1,0,0,0,0,0,1,3,,35.7070107261,139.789031973,301
13106,旧坂本小学校,東京都台東区下谷1-12-8,避難所,-1,-1,0,0,0,0,0,1,3,,35.7200208133,139.782231276,302
13106,旧小島小学校,東京都台東区小島2-9-10,避難所,-1,-1,0,0,0,0,0,1,3,,35.7060752502,139.783887017,303
13106,旧台東小学校,東京都台東区下谷3-1-14,避難所,-1,-1,0,0,0,0,0,1,3,,35.723076,139.785739,304
13106,旧田中小学校,東京都台東区日本堤2-25-4,避難所,-1,-1,0,0,0,0,0,1,3,,35.7279292314,139.797144986,305
13106,旧福井中学校,東京都台東区浅草橋1-22-15,避難所,-1,-1,0,0,0,0,0,1,3,,35.6979157186,139.784209812,306
13106,旧柳北小学校,東京都台東区浅草橋5-1-35,避難所,-1,-1,0,0,0,0,0,1,3,,35.6994682696,139.782378392,307
13106,旧竜泉中学校,東京都台東区竜泉2-10-6,避難所,-1,-1,0,0,0,0,0,1,3,,35.7254831087,139.789557812,308
13106,金曾木小学校,東京都台東区根岸4-16-22,避難所,-1,-1,0,0,0,0,0,1,1,,35.725928,139.785236,309
13106,金竜小学校,東京都台東区千束1-9-9,避難所,-1,-1,0,0,0,0,0,1,1,,35.718623,139.790291,310
13106,駒形中学校,東京都台東区北上野2-15-1,避難所,-1,-1,0,0,0,0,0,1,1,,35.717512,139.784264,311
13106,隅田公園一帯,東京都台東区,避難場所,61800,77100,0,0,0,0,0,1,1,,35.71591589,139.80363534,312
13106,御徒町台東中学校,東京都台東区台東4-13-16,避難所,-1,-1,0,0,0,0,0,1,1,,35.706957,139.777515,313
13106,黒門小学校,東京都台東区上野1-16-20,避難所,-1,-1,0,0,0,0,0,1,1,,35.706957,139.770987,314
13106,根岸小学校,東京都台東区根岸3-9-8,避難所,-1,-1,0,0,0,0,0,1,1,,35.723678,139.778875,315
13106,桜橋中学校,東京都台東区今戸2-1-8,避難所,-1,-1,0,0,0,0,0,1,1,,35.720791,139.806846,316
13106,産業研修センター,東京都台東区橋場1-36-2,避難所,-1,-1,0,0,0,0,0,1,1,,35.724079,139.808257,317
13106,松葉小学校,東京都台東区松が谷1-13-16,避難所,-1,-1,0,0,0,0,0,1,1,,35.712429,139.786459,318
13106,上野公園一帯,東京都台東区上野公園、池之端三丁目,避難場所、広域避難場所,227400,418300,0,0,0,0,0,1,3,,35.7135829481,139.772250981,319
13106,上野高等学校,東京都台東区上野公園10-14,避難所,-1,-1,0,0,0,0,0,1,1,,35.71865,139.769904,320
13106,上野小学校,東京都台東区東上野6-16-8,避難所,-1,-1,0,0,0,0,0,1,1,,35.713568,139.783875,321
13106,上野中学校,東京都台東区上野桜木1-14-55,避難所,-1,-1,0,0,0,0,0,1,1,,35.721345,139.774903,322
13106,生涯学習センター,東京都台東区西浅草3-25-16,避難所,-1,-1,0,0,0,0,0,1,1,,35.717526,139.789586,323
13106,石浜小学校,東京都台東区清川1-14-21,避難所,-1,-1,0,0,0,0,0,1,1,,35.724595,139.803374,324
13106,千束小学校,東京都台東区浅草4-24-11,避難所,-1,-1,0,0,0,0,0,1,1,,35.719428,139.794318,325
13106,浅草小学校,東京都台東区花川戸1-14-15,避難所,-1,-1,0,0,0,0,0,1,1,,35.713568,139.799096,326
13106,浅草中学校,東京都台東区蔵前1-3-4,避難所,-1,-1,0,0,0,0,0,1,1,,35.69993,139.789932,327
13106,蔵前工業高等学校,東京都台東区蔵前1-3-57,避難所,-1,-1,0,0,0,0,0,1,1,,35.700375,139.791793,328
13106,蔵前小学校,東京都台東区蔵前4-19-11,避難所,-1,-1,0,0,0,0,0,1,1,,35.70443,139.789292,329
13106,台東育英小学校,東京都台東区浅草橋2-26-8,避難所,-1,-1,0,0,0,0,0,1,1,,35.700097,139.785515,330
13106,台東一丁目区民館,東京都台東区台東1-25-5,避難所,-1,-1,0,0,0,0,0,1,1,,35.701772,139.7779,331
13106,台東商業高等学校,東京都台東区今戸1-8-13,避難所,-1,-1,0,0,0,0,0,1,1,,35.719596,139.802485,332
13106,大正小学校,東京都台東区入谷2-23-8,避難所,-1,-1,0,0,0,0,0,1,1,,35.720928,139.788125,333
13106,谷中墓地,東京都台東区,避難場所、広域避難場所,32100,48500,0,0,0,0,0,1,3,,35.72397081,139.771681433,334
13106,谷中小学校,東京都台東区谷中2-9-16,避難所,-1,-1,0,0,0,0,0,1,1,,35.723705,139.765182,335
13106,田原小学校,東京都台東区雷門1-5-14,避難所,-1,-1,0,0,0,0,0,1,1,,35.710013,139.792458,336
13106,東上野区民館,東京都台東区東上野3-24-6,避難所,-1,-1,0,0,0,0,0,1,1,,35.711293,139.779612,337
13106,東泉小学校,東京都台東区三ノ輪1-23-9,避難所,-1,-1,0,0,0,0,0,1,1,,35.728427,139.792096,338
13106,東浅草小学校,東京都台東区東浅草2-27-19,避難所,-1,-1,0,0,0,0,0,1,1,,35.724345,139.798457,339
13106,忍岡高等学校,東京都台東区浅草橋5-1-24,避難所,-1,-1,0,0,0,0,0,1,3,,35.700639,139.78251,340
13106,忍岡小学校,東京都台東区池之端2-1-22,避難所,-1,-1,0,0,0,0,0,1,1,,35.713954,139.766834,341
13106,忍岡中学校,東京都台東区上野公園18-20,避難所,-1,-1,0,0,0,0,0,1,1,,35.719317,139.778986,342
13106,柏葉中学校,東京都台東区下谷3-1-29,避難所,-1,-1,0,0,0,0,0,1,1,,35.723595,139.785903,343
13106,白鴎高等学校,東京都台東区元浅草1-6-22,避難所,-1,-1,0,0,0,0,0,1,1,,35.708179,139.783042,344
13106,白鴎高等学校附属中学校,東京都台東区元浅草3-12-12,避難所,-1,-1,0,0,0,0,0,1,1,,35.70718,139.787375,345
13106,富士小学校,東京都台東区浅草4-48-9,避難所,-1,-1,0,0,0,0,0,1,1,,35.718651,139.798374,346
13106,平成小学校,東京都台東区台東4-21-15,避難所,-1,-1,0,0,0,0,0,1,1,,35.706124,139.780154,347
13106,老人福祉センター,東京都台東区東上野2-25-14,避難所,-1,-1,0,0,0,0,0,1,1,,35.7094549991,139.781571,348
13107,曳舟小学校,東京都墨田区京島1-28-2,避難所,1061,-1,0,0,0,0,0,1,1,,35.7166523504,139.820928,349
13107,猿江恩賜公園一帯,東京都墨田区,避難場所,41500,125000,0,0,0,0,0,1,1,,35.69072265,139.81911648,350
13107,押上小学校,東京都墨田区押上3-46-17,避難所,1501,-1,0,0,0,0,0,1,1,,35.711917,139.819368,351
13107,横川小学校,東京都墨田区東駒形4-18-4,避難所,1149,-1,0,0,0,0,0,1,1,,35.707235,139.806318,352
13107,外手小学校,東京都墨田区本所2-1-16,避難所,1564,-1,0,0,0,0,0,1,1,,35.702513,139.800597,353
13107,菊川小学校,東京都墨田区立川4-12-15,避難所,1318,-1,0,0,0,0,0,1,1,,35.69157,139.807653,354
13107,旧隅田小学校,東京都墨田区墨田5-49-5,避難所,1253,-1,0,0,0,0,0,1,3,,35.7360669991,139.8209,355
13107,旧第五吾嬬小学校,東京都墨田区八広4-35-17,避難所,1526,-1,0,0,0,0,0,1,3,,35.723165,139.829377,356
13107,旧木下川小学校,東京都墨田区東墨田2-15-13,避難所,825,-1,0,0,0,0,0,1,3,,35.721902,139.833241,357
13107,旧立花小学校,東京都墨田区立花1-25-27,避難所,1478,-1,0,0,0,0,0,1,3,,35.705236,139.831316,358
13107,業平小学校,東京都墨田区業平2-4-8,避難所,1415,-1,0,0,0,0,0,1,1,,35.706374,139.811651,359
13107,錦糸公園,東京都墨田区,避難場所,23400,45100,0,0,0,0,0,1,1,,35.69903,139.81644,360
13107,錦糸小学校,東京都墨田区錦糸1-9-12,避難所,1439,-1,0,0,0,0,0,1,1,,35.698514,139.81143,361
13107,錦糸中学校,東京都墨田区石原4-33-14,避難所,1805,-1,0,0,0,0,0,1,1,,35.701458,139.806958,362
13107,隅田小学校,東京都墨田区墨田4-6-5,避難所,829,-1,0,0,0,0,0,1,4,,35.7341099623,139.821757131,363
13107,言問小学校,東京都墨田区向島5-40-14,避難所,1139,-1,0,0,0,0,0,1,1,,35.718513,139.811373,364
13107,吾嬬第一中学校,東京都墨田区立花5-48-9,避難所,1767,-1,0,0,0,0,0,1,1,,35.712986,139.831926,365
13107,吾嬬第二中学校,東京都墨田区八広4-4-4,避難所,1545,-1,0,0,0,0,0,1,1,,35.721846,139.827149,366
13107,向島中学校,東京都墨田区東向島4-18-9,避難所,1713,-1,0,0,0,0,0,1,1,,35.726096,139.817179,367
13107,荒川・四ツ木橋緑地,東京都墨田区,避難場所,37600,88200,0,0,0,0,0,1,4,,35.7292269751,139.829183535,368
13107,寺島中学校,東京都墨田区八広1-17-15,避難所,2442,-1,0,0,0,0,0,1,1,,35.720152,139.823094,369
13107,小梅小学校,東京都墨田区向島2-4-10,避難所,1629,-1,0,0,0,0,0,1,1,,35.714513,139.805984,370
13107,鐘淵中学校,東京都墨田区堤通2-11-1,避難所,1816,-1,0,0,0,0,0,1,1,,35.738539,139.816344,371
13107,第一寺島小学校,東京都墨田区東向島1-16-2,避難所,1328,-1,0,0,0,0,0,1,1,,35.721569,139.814484,372
13107,第三吾嬬小学校,東京都墨田区八広2-36-3,避難所,1704,-1,0,0,0,0,0,1,1,,35.717097,139.827899,373
13107,第三寺島小学校,東京都墨田区東向島6-8-1,避難所,1239,-1,0,0,0,0,0,1,1,,35.721374,139.8204,374
13107,第四吾嬬小学校,東京都墨田区京島3-64-9,避難所,1253,-1,0,0,0,0,0,1,1,,35.713403,139.825094,375
13107,第二寺島小学校,東京都墨田区東向島4-30-2,避難所,1533,-1,0,0,0,0,0,1,1,,35.724707,139.818595,376
13107,竪川中学校,東京都墨田区亀沢4-11-15,避難所,1374,-1,0,0,0,0,0,1,1,,35.696847,139.805708,377
13107,中川小学校,東京都墨田区立花5-49-4,避難所,1068,-1,0,0,0,0,0,1,1,,35.713569,139.831371,378
13107,中和小学校,東京都墨田区菊川1-18-10,避難所,1189,-1,0,0,0,0,0,1,1,,35.690209,139.802737,379
13107,堤小学校,東京都墨田区堤通2-19-1,避難所,1248,-1,0,0,0,0,0,1,1,,35.730457,139.811846,380
13107,都営文花一丁目住宅一帯,東京都墨田区,避難場所,27900,57700,0,0,0,0,0,1,3,,35.7081616035,139.821460979,381
13107,東吾嬬小学校,東京都墨田区立花4-22-11,避難所,1532,-1,0,0,0,0,0,1,1,,35.708597,139.832038,382
13107,二葉小学校,東京都墨田区石原2-1-5,避難所,1581,-1,0,0,0,0,0,1,1,,35.699236,139.80032,383
13107,梅若小学校,東京都墨田区墨田2-25-1,避難所,1108,-1,0,0,0,0,0,1,1,,35.730318,139.81554,384
13107,白鬚東地区,東京都墨田区,避難場所,38600,165600,0,0,0,0,0,1,3,,35.7248067352,139.810994098,385
13107,八広小学校,東京都墨田区八広5-12-15,避難所,987,-1,0,0,0,0,0,1,1,,35.72718,139.826149,386
13107,文花中学校,東京都墨田区文花1-22-7,避難所,1012,-1,0,0,0,0,0,1,1,,35.710181,139.822005,387
13107,墨田区役所・隅田公園自由広場一帯,東京都墨田区,避難場所,31000,35500,0,0,0,0,0,1,3,,35.7115868189,139.802699065,388
13107,墨田中学校,東京都墨田区向島4-25-22,避難所,1545,-1,0,0,0,0,0,1,1,,35.715041,139.811512,389
13107,本所中学校,東京都墨田区東駒形3-1-10,避難所,1505,-1,0,0,0,0,0,1,1,,35.705319,139.802846,390
13107,柳島小学校,東京都墨田区横川5-2-30,避難所,1658,-1,0,0,0,0,0,1,1,,35.703819,139.817762,391
13107,立花一丁目団地一帯,東京都墨田区,避難場所,14400,39400,0,0,0,0,0,1,3,,35.705201,139.830036,392
13107,立花吾嬬の森小学校,東京都墨田区立花1-18-6,避難所,1608,-1,0,0,0,0,0,1,3,,35.7066062747,139.829493928,393
13107,立花中学校,東京都墨田区立花4-30-18,避難所,1416,-1,0,0,0,0,0,1,1,,35.709819,139.834787,394
13107,両国小学校,東京都墨田区両国4-26-6,避難所,1429,-1,0,0,0,0,0,1,1,,35.693792,139.795182,395
13107,両国地区,東京都墨田区,避難場所,65200,88400,0,0,0,0,0,1,3,,35.6983238686,139.795186616,396
13107,両国中学校,東京都墨田区横網1-8-1,避難所,1605,-1,0,0,0,0,0,1,1,,35.697653,139.795571,397
13107,緑小学校,東京都墨田区緑2-12-12,避難所,1139,-1,0,0,0,0,0,1,1,,35.694098,139.801154,398
13108,アンフェリシオン,東京都江東区亀戸1-43-22,避難所,300,-1,0,0,0,0,0,1,3,,35.69679,139.82239,399
13108,スポーツ会館,東京都江東区北砂1-2-9,避難所,2020,-1,0,0,0,0,0,1,1,,35.684474,139.821382,400
13108,ちどり幼稚園,東京都江東区古石場1-11-11,避難所,140,-1,0,0,0,0,0,1,1,,35.669184,139.794848,401
13108,つばめ幼稚園,東京都江東区扇橋3-20-13-101,避難所,140,-1,0,0,0,0,0,1,1,,35.684321,139.818957,402
13108,なでしこ幼稚園,東京都江東区北砂5-20-7-102,避難所,340,-1,0,0,0,0,0,1,1,,35.683489,139.834066,403
13108,ひばり幼稚園,東京都江東区東雲2-4-1-103,避難所,260,-1,0,0,0,0,0,1,1,,35.642187,139.797793,404
13108,ホテルイースト２１東京,東京都江東区東陽6-3-2,避難所,1090,-1,0,0,0,0,0,1,3,,35.6744677117,139.814630095,405
13108,みどり幼稚園,東京都江東区南砂2-3-3-101,避難所,320,-1,0,0,0,0,0,1,4,,35.6732115106,139.822956,406
13108,もみじ幼稚園,東京都江東区大島8-21-9-101,避難所,220,-1,0,0,0,0,0,1,1,,35.688932,139.839899,407
13108,わかば保育園,東京都江東区大島9-7-8-101,避難所,260,-1,0,0,0,0,0,1,1,,35.693987,139.844231,408
13108,越中島小学校,東京都江東区越中島3-6-38,避難所,1210,-1,0,0,0,0,0,1,1,,35.666073,139.79632,409
13108,猿江保育園,東京都江東区猿江1-8-10,避難所,90,-1,0,0,0,0,0,1,1,,35.685405,139.813513,410
13108,塩崎保育園,東京都江東区塩浜2-6-3,避難所,240,-1,0,0,0,0,0,1,1,,35.660935,139.808624,411
13108,塩浜保育園,東京都江東区塩浜1-3-10,避難所,160,-1,0,0,0,0,0,1,1,,35.66349,139.800792,412
13108,科学技術高等学校,東京都江東区大島1-2-31,避難所,890,-1,0,0,0,0,0,1,1,,35.687127,139.822512,413
13108,介護老人保健施設キーストーン,東京都江東区亀戸3-36-1,避難所,200,-1,0,0,0,0,0,1,3,,35.707275,139.819329,414
13108,亀戸スポーツセンター,東京都江東区亀戸8-22-1,避難所,790,-1,0,0,0,0,0,1,1,,35.700317,139.836638,415
13108,亀戸児童館,東京都江東区亀戸2-1-19,避難所,190,-1,0,0,0,0,0,1,4,,35.6977894188,139.821668052,416
13108,亀戸図書館亀戸第三児童館,東京都江東区亀戸7-39-9,避難所,500,-1,0,0,0,0,0,1,1,,35.696949,139.839331,417
13108,亀戸第三保育園,東京都江東区亀戸1-24-6,避難所,260,-1,0,0,0,0,0,1,1,,35.694681,139.82415,418
13108,亀戸第四保育園,東京都江東区亀戸4-21-13,避難所,330,-1,0,0,0,0,0,1,1,,35.702597,139.826622,419
13108,亀戸第二保育園,東京都江東区亀戸7-57-8-107,避難所,140,-1,0,0,0,0,0,1,1,,35.696293,139.836704,420
13108,亀戸中学校,東京都江東区亀戸9-2-2,避難所,1250,-1,0,0,0,0,0,1,1,,35.695293,139.841815,421
13108,亀戸福祉会館亀戸第二児童館,東京都江東区亀戸1-24-6,避難所,290,-1,0,0,0,0,0,1,1,,35.694548,139.824209,422
13108,亀戸文化センター,東京都江東区亀戸2-19-1,避難所,840,-1,0,0,0,0,0,1,1,,35.697645,139.82452,423
13108,亀戸保育園,東京都江東区亀戸6-54-2-101,避難所,90,-1,0,0,0,0,0,1,1,,35.696487,139.832454,424
13108,亀戸老人福祉センター,東京都江東区亀戸9-33-2-101,避難所,220,-1,0,0,0,0,0,1,1,,35.698987,139.842148,425
13108,亀高小学校,東京都江東区北砂5-20-16,避難所,1440,-1,0,0,0,0,0,1,1,,35.685044,139.834232,426
13108,亀高第二保育園,東京都江東区北砂5-20-10-101,避難所,270,-1,0,0,0,0,0,1,1,,35.685349,139.834066,427
13108,亀高保育園,東京都江東区北砂5-20-9-101,避難所,280,-1,0,0,0,0,0,1,1,,35.684766,139.832983,428
13108,旧第三大島中学校,東京都江東区大島1-20-20,避難所,1380,-1,0,0,0,0,0,1,3,,35.6856339575,139.824987973,429
13108,旧南砂西小学校,東京都江東区南砂2-3-13,避難所,1900,-1,0,0,0,0,0,1,3,,35.6719961747,139.821207406,430
13108,教育センター東陽図書館,東京都江東区東陽2-3-6,避難所,840,-1,0,0,0,0,0,1,1,,35.667193,139.817133,431
13108,元加賀小学校,東京都江東区白河4-3-19,避難所,1270,-1,0,0,0,0,0,1,1,,35.682238,139.808347,432
13108,元加賀幼稚園,東京都江東区白河4-9-17,避難所,210,-1,0,0,0,0,0,1,1,,35.682738,139.807598,433
13108,古石場福祉会館古石場児童館,東京都江東区古石場1-11-1,避難所,220,-1,0,0,0,0,0,1,3,,35.6689449001,139.795262505,434
13108,古石場文化センター,東京都江東区古石場2-13-2,避難所,620,-1,0,0,0,0,0,1,1,,35.666926,139.799142,435
13108,古石場保育園,東京都江東区古石場2-14-1-102,避難所,320,-1,0,0,0,0,0,1,4,,35.6670030905,139.799807626,436
13108,江東区文化センター,東京都江東区東陽4-11-3,避難所,1810,-1,0,0,0,0,0,1,1,,35.672473,139.818337,437
13108,江東公会堂（ティアラこうとう）,東京都江東区住吉2-28-36,避難所,670,-1,0,0,0,0,0,1,1,,35.688496,139.819501,438
13108,江東商業高等学校,東京都江東区亀戸4-50-1,避難所,410,-1,0,0,0,0,0,1,1,,35.702625,139.831399,439
13108,江東図書館,東京都江東区南砂6-7-52,避難所,50,-1,0,0,0,0,0,1,1,,35.671795,139.834053,440
13108,香取小学校,東京都江東区亀戸4-26-22,避難所,910,-1,0,0,0,0,0,1,1,,35.703958,139.826317,441
13108,砂町小学校,東京都江東区北砂4-13-23,避難所,1380,-1,0,0,0,0,0,1,1,,35.677406,139.829011,442
13108,砂町中学校,東京都江東区北砂6-16-28,避難所,1490,-1,0,0,0,0,0,1,1,,35.685238,139.837177,443
13108,砂町文化センター、砂町図書館,東京都江東区北砂5-1-7,避難所,1310,-1,0,0,0,0,0,1,1,,35.680447,139.832031,444
13108,枝川区民館,東京都江東区枝川3-6-16,避難所,270,-1,0,0,0,0,0,1,1,,35.658488,139.810303,445
13108,枝川小学校,東京都江東区枝川3-5-3,避難所,2220,-1,0,0,0,0,0,1,1,,35.659602,139.80943,446
13108,枝川幼稚園,東京都江東区枝川3-4-1-101,避難所,170,-1,0,0,0,0,0,1,1,,35.659463,139.808624,447
13108,児童会館,東京都江東区住吉1-9-8,避難所,520,-1,0,0,0,0,0,1,1,,35.687571,139.812347,448
13108,芝浦工業大学（豊洲キャンパス）,東京都江東区豊洲3-7-5,避難所,760,-1,0,0,0,0,0,1,1,,35.66093,139.795435,449
13108,小名木川児童館,東京都江東区北砂5-20-5-101,避難所,240,-1,0,0,0,0,0,1,1,,35.682044,139.833761,450
13108,小名木川小学校,東京都江東区北砂5-22-10,避難所,1560,-1,0,0,0,0,0,1,1,,35.682405,139.831094,451
13108,小名木川第二保育園,東京都江東区北砂5-20-3-101,避難所,260,-1,0,0,0,0,0,1,1,,35.682183,139.832011,452
13108,小名木川保育園,東京都江東区北砂5-21-5,避難所,240,-1,0,0,0,0,0,1,1,,35.683183,139.830761,453
13108,城東高等学校,東京都江東区大島3-22-1,避難所,780,-1,0,0,0,0,0,1,1,,35.692876,139.829372,454
13108,城東保育園,東京都江東区南砂7-9-11,避難所,130,-1,0,0,0,0,0,1,4,,35.6703955073,139.832431471,455
13108,城東老人福祉センター,東京都江東区北砂4-20-12,避難所,250,-1,0,0,0,0,0,1,1,,35.6774262765,139.831820754,456
13108,森下児童館,東京都江東区森下3-14-6,避難所,120,-1,0,0,0,0,0,1,4,,35.6859682005,139.802965646,457
13108,森下文化センター,東京都江東区森下3-12-17,避難所,1030,-1,0,0,0,0,0,1,1,,35.685151,139.802145,458
13108,森下保育園,東京都江東区森下3-14-6,避難所,190,-1,0,0,0,0,0,1,1,,35.685932,139.80296,459
13108,深川スポーツセンター,東京都江東区越中島1-2-18,避難所,1420,-1,0,0,0,0,0,1,1,,35.670459,139.79171,460
13108,深川一丁目保育園,東京都江東区深川1-6-15-101,避難所,180,-1,0,0,0,0,0,1,1,,35.677266,139.796376,461
13108,深川高等学校,東京都江東区東陽5-32-19,避難所,710,-1,0,0,0,0,0,1,1,,35.671129,139.815513,462
13108,深川小学校,東京都江東区高橋14-10,避難所,1000,-1,0,0,0,0,0,1,1,,35.686043,139.799572,463
13108,深川図書館,東京都江東区清澄3-3-39,避難所,400,-1,0,0,0,0,0,1,1,,35.679154,139.796721,464
13108,深川第一中学校,東京都江東区森下4-9-22,避難所,790,-1,0,0,0,0,0,1,1,,35.685266,139.805598,465
13108,深川第五中学校,東京都江東区豊洲4-11-18,避難所,1540,-1,0,0,0,0,0,1,1,,35.652677,139.799157,466
13108,深川第三中学校,東京都江東区越中島3-7-1,避難所,1730,-1,0,0,0,0,0,1,1,,35.666768,139.795987,467
13108,深川第四中学校,東京都江東区千石1-12-12,避難所,1300,-1,0,0,0,0,0,1,1,,35.678933,139.812458,468
13108,深川第七中学校,東京都江東区毛利1-14-1,避難所,1310,-1,0,0,0,0,0,1,1,,35.691348,139.813513,469
13108,深川第二中学校,東京都江東区冬木22-10,避難所,1490,-1,0,0,0,0,0,1,1,,35.676461,139.800626,470
13108,深川第八中学校,東京都江東区塩浜2-21-14,避難所,1640,-1,0,0,0,0,0,1,1,,35.664796,139.811957,471
13108,深川第六中学校,東京都江東区平野3-6-13,避難所,850,-1,0,0,0,0,0,1,1,,35.678794,139.80557,472
13108,深川北スポーツセンター,東京都江東区平野3-2-20,避難所,680,-1,0,0,0,0,0,1,1,,35.676889,139.804942,473
13108,深川北子ども家庭支援センター,東京都江東区高橋14-6,避難所,190,-1,0,0,0,0,0,1,3,,35.6859273901,139.799131406,474
13108,深川老人福祉センター平野児童館,東京都江東区平野1-2-3,避難所,590,-1,0,0,0,0,0,1,1,,35.678433,139.798654,475
13108,水神小学校,東京都江東区亀戸5-22-22,避難所,1190,-1,0,0,0,0,0,1,1,,35.700097,139.827928,476
13108,数矢小学校,東京都江東区富岡1-18-7,避難所,1540,-1,0,0,0,0,0,1,1,,35.672823,139.800014,477
13108,青少年センター,東京都江東区亀戸7-41-16,避難所,730,-1,0,0,0,0,0,1,3,,35.696823,139.837394,478
13108,千田福祉会館千田児童館,東京都江東区千田21-18,避難所,500,-1,0,0,0,0,0,1,1,,35.681025,139.816488,479
13108,川南小学校,東京都江東区千石2-9-12,避難所,1420,-1,0,0,0,0,0,1,1,,35.679794,139.816763,480
13108,扇橋小学校,東京都江東区石島18-5,避難所,1090,-1,0,0,0,0,0,1,1,,35.681461,139.811958,481
13108,浅間竪川小学校,東京都江東区亀戸9-22-4,避難所,1140,-1,0,0,0,0,0,1,1,,35.698681,139.841815,482
13108,総合区民センター、大島福祉会館、城東図書館、大島第二児童館,東京都江東区大島4-5-1,避難所,1330,-1,0,0,0,0,0,1,1,,35.6890759991,139.826838,483
13108,大江戸高等学校,東京都江東区千石3-2-11,避難所,870,-1,0,0,0,0,0,1,1,,35.679324,139.818052,484
13108,大島子ども家庭支援センター,東京都江東区大島4-1-37,避難所,150,-1,0,0,0,0,0,1,3,,35.6873936092,139.828100406,485
13108,大島児童館,東京都江東区大島7-28-1-104,避難所,190,-1,0,0,0,0,0,1,1,,35.6936539991,139.840093,486
13108,大島西中学校,東京都江東区大島4-1-23,避難所,1210,-1,0,0,0,0,0,1,1,,35.686405,139.8279,487
13108,大島第五保育園,東京都江東区大島4-21-3-101,避難所,270,-1,0,0,0,0,0,1,1,,35.68621,139.832011,488
13108,大島第三保育園,東京都江東区大島6-1-6-130,避難所,240,-1,0,0,0,0,0,1,1,,35.692765,139.833177,489
13108,大島第四保育園,東京都江東区大島8-12-20-101,避難所,190,-1,0,0,0,0,0,1,1,,35.687266,139.838954,490
13108,大島第二保育園,東京都江東区大島4-1-6-130,避難所,160,-1,0,0,0,0,0,1,1,,35.687071,139.830233,491
13108,大島中学校,東京都江東区大島8-12-22,避難所,1050,-1,0,0,0,0,0,1,1,,35.68671,139.839815,492
13108,大島南央小学校,東京都江東区大島4-18-5,避難所,1510,-1,0,0,0,0,0,1,3,,35.6873769991,139.831538,493
13108,大島保育園,東京都江東区大島5-53-1-101,避難所,220,-1,0,0,0,0,0,1,1,,35.686433,139.838343,494
13108,大島幼稚園,東京都江東区大島5-38-1,避難所,290,-1,0,0,0,0,0,1,1,,35.687183,139.835927,495
13108,第一亀戸小学校,東京都江東区亀戸2-5-7,避難所,1430,-1,0,0,0,0,0,1,1,,35.699097,139.82204,496
13108,第一大島小学校,東京都江東区大島2-41-4,避難所,1330,-1,0,0,0,0,0,1,1,,35.68996,139.825539,497
13108,第五砂町小学校,東京都江東区東砂8-11-5,避難所,1330,-1,0,0,0,0,0,1,1,,35.667491,139.839288,498
13108,第五砂町幼稚園,東京都江東区東砂7-5-27,避難所,290,-1,0,0,0,0,0,1,1,,35.671435,139.838705,499
13108,第五大島小学校,東京都江東区大島8-40-13,避難所,1100,-1,0,0,0,0,0,1,1,,35.688127,139.844759,500
13108,第三亀戸中学校,東京都江東区亀戸1-12-10,避難所,1520,-1,0,0,0,0,0,1,1,,35.695042,139.821234,501
13108,第三砂町小学校,東京都江東区南砂6-3-13,避難所,1850,-1,0,0,0,0,0,1,4,,35.672656,139.833233,502
13108,第三砂町中学校,東京都江東区南砂3-10-3,避難所,1520,-1,0,0,0,0,0,1,4,,35.6697959991,139.830067,503
13108,第三商業高等学校,東京都江東区越中島3-3-1,避難所,730,-1,0,0,0,0,0,1,1,,35.662879,139.795709,504
13108,第三大島小学校,東京都江東区大島9-5-3,避難所,1740,-1,0,0,0,0,0,1,1,,35.69243,139.845197,505
13108,第三大島幼稚園,東京都江東区大島7-39-2-101,避難所,290,-1,0,0,0,0,0,1,1,,35.691377,139.843759,506
13108,第四砂町小学校,東京都江東区南砂2-13-18,避難所,1240,-1,0,0,0,0,0,1,1,,35.674878,139.822068,507
13108,第四砂町中学校,東京都江東区北砂5-20-17,避難所,1610,-1,0,0,0,0,0,1,1,,35.684822,139.831677,508
13108,第四大島小学校,東京都江東区大島6-7-8,避難所,1630,-1,0,0,0,0,0,1,1,,35.691154,139.834399,509
13108,第七砂町小学校,東京都江東区東砂3-21-5,避難所,1690,-1,0,0,0,0,0,1,1,,35.678934,139.84251,510
13108,第二亀戸小学校,東京都江東区亀戸6-36-1,避難所,1040,-1,0,0,0,0,0,1,1,,35.695515,139.830094,511
13108,第二亀戸中学校,東京都江東区亀戸4-51-1,避難所,1170,-1,0,0,0,0,0,1,1,,35.702625,139.832566,512
13108,第二砂町小学校,東京都江東区東砂7-17-30,避難所,1840,-1,0,0,0,0,0,1,1,,35.674879,139.83876,513
13108,第二砂町中学校,東京都江東区東砂8-10-9,避難所,1240,-1,0,0,0,0,0,1,1,,35.668352,139.839566,514
13108,第二大島小学校,東京都江東区大島3-16-2,避難所,1150,-1,0,0,0,0,0,1,1,,35.689988,139.829733,515
13108,第二大島中学校,東京都江東区大島3-27-18,避難所,1140,-1,0,0,0,0,0,1,1,,35.691654,139.831538,516
13108,第二辰巳小学校,東京都江東区辰巳1-1-22,避難所,1320,-1,0,0,0,0,0,1,1,,35.648353,139.808458,517
13108,第二南砂中学校,東京都江東区南砂1-2-18,避難所,1140,-1,0,0,0,0,0,1,1,,35.678017,139.821318,518
13108,第六砂町小学校,東京都江東区北砂6-26-6,避難所,1020,-1,0,0,0,0,0,1,1,,35.682183,139.83851,519
13108,辰巳児童館,東京都江東区辰巳1-1-36,避難所,280,-1,0,0,0,0,0,1,4,,35.647578733,139.808939131,520
13108,辰巳小学校,東京都江東区辰巳1-11-1,避難所,1480,-1,0,0,0,0,0,1,1,,35.646659,139.810041,521
13108,辰巳第三保育園,東京都江東区辰巳1-10-81-101,避難所,210,-1,0,0,0,0,0,1,1,,35.648187,139.811374,522
13108,辰巳第二保育園,東京都江東区辰巳1-10-65-101,避難所,150,-1,0,0,0,0,0,1,1,,35.648964,139.810708,523
13108,辰巳中学校,東京都江東区辰巳1-10-57,避難所,1560,-1,0,0,0,0,0,1,1,,35.646826,139.811347,524
13108,男女共同参画推進センター,東京都江東区扇橋3-22-2,避難所,540,-1,0,0,0,0,0,1,1,,35.6841299991,139.820162,525
13108,中央学院大学中央高等学校,東京都江東区亀戸7-65-12,避難所,790,-1,0,0,0,0,0,1,1,,35.695859,139.839875,526
13108,中村中学高等学校,東京都江東区清澄2-3-15,避難所,490,-1,0,0,0,0,0,1,1,,35.68146,139.796599,527
13108,潮見保育園,東京都江東区潮見1-29-15-101,避難所,250,-1,0,0,0,0,0,1,1,,35.655991,139.814707,528
13108,東雲児童館,東京都江東区東雲2-4-4-102,避難所,220,-1,0,0,0,0,0,1,1,,35.6439369991,139.799265,529
13108,東雲小学校,東京都江東区東雲2-4-11,避難所,1460,-1,0,0,0,0,0,1,1,,35.642437,139.799209,530
13108,東雲第二保育園,東京都江東区東雲2-4-4-103,避難所,190,-1,0,0,0,0,0,1,1,,35.643326,139.799237,531
13108,東雲保育園,東京都江東区東雲1-8-5-101,避難所,150,-1,0,0,0,0,0,1,1,,35.644937,139.800237,532
13108,東京海洋大学,東京都江東区越中島2-1-6,避難所,940,-1,0,0,0,0,0,1,1,,35.667851,139.791765,533
13108,東高等学校,東京都江東区東砂7-19-24,避難所,880,-1,0,0,0,0,0,1,1,,35.673684,139.837233,534
13108,東砂スポーツセンター,東京都江東区東砂4-24-1,避難所,740,-1,0,0,0,0,0,1,1,,35.679187,139.839444,535
13108,東砂小学校,東京都江東区東砂2-12-14,避難所,1390,-1,0,0,0,0,0,1,1,,35.683378,139.844343,536
13108,東砂第三保育園,東京都江東区東砂1-5-3-101,避難所,210,-1,0,0,0,0,0,1,1,,35.682128,139.840788,537
13108,東砂第四保育園,東京都江東区東砂7-17-35-101,避難所,200,-1,0,0,0,0,0,1,1,,35.674073,139.838482,538
13108,東砂第二児童館,東京都江東区東砂2-13-13,避難所,180,-1,0,0,0,0,0,1,4,,35.6859643545,139.841567001,539
13108,東砂第二保育園,東京都江東区東砂2-6-4-101,避難所,160,-1,0,0,0,0,0,1,1,,35.684433,139.842954,540
13108,東砂福祉会館、東砂児童館,東京都江東区東砂7-15-3,避難所,520,-1,0,0,0,0,0,1,1,,35.6746289991,139.839705,541
13108,東砂保育園,東京都江東区東砂2-13-2-101,避難所,150,-1,0,0,0,0,0,1,4,,35.6848953652,139.843805085,542
13108,東砂幼稚園,東京都江東区東砂4-20-1,避難所,310,-1,0,0,0,0,0,1,1,,35.67835,139.839177,543
13108,東川小学校,東京都江東区住吉1-12-2,避難所,1130,-1,0,0,0,0,0,1,1,,35.688543,139.812514,544
13108,東大島文化センター,東京都江東区大島8-33-9,避難所,890,-1,0,0,0,0,0,1,1,,35.689763,139.842385,545
13108,東陽区民館、東陽子ども家庭支援センター,東京都江東区東陽3-1-2,避難所,270,-1,0,0,0,0,0,1,3,,35.66856,139.808569,546
13108,東陽児童館,東京都江東区東陽5-16-13,避難所,230,-1,0,0,0,0,0,1,4,,35.6713778982,139.811790958,547
13108,東陽小学校,東京都江東区東陽3-27-12,避難所,1700,-1,0,0,0,0,0,1,1,,35.670684,139.81554,548
13108,東陽中学校,東京都江東区東陽2-1-8,避難所,1170,-1,0,0,0,0,0,1,1,,35.666907,139.814013,549
13108,東陽福祉会館,東京都江東区東陽6-2-17,避難所,240,-1,0,0,0,0,0,1,1,,35.6747139991,139.812363,550
13108,東陽保育園,東京都江東区東陽3-22-1-101,避難所,290,-1,0,0,0,0,0,1,1,,35.669184,139.813707,551
13108,特別養護老人ホームカメリア,東京都江東区亀戸3-36-5,避難所,490,-1,0,0,0,0,0,1,1,,35.707074,139.81994,552
13108,南砂子ども家庭支援センター,東京都江東区南砂3-14-1-101,避難所,160,-1,0,0,0,0,0,1,3,,35.6688510273,139.831695638,553
13108,南砂児童館,東京都江東区南砂2-3-17,避難所,250,-1,0,0,0,0,0,1,4,,35.6711551293,139.823125814,554
13108,南砂小学校,東京都江東区南砂2-3-21,避難所,1500,-1,0,0,0,0,0,1,1,,35.671906,139.824984,555
13108,南砂第一保育園,東京都江東区南砂4-4-1-102,避難所,190,-1,0,0,0,0,0,1,1,,35.674628,139.828539,556
13108,南砂第五保育園,東京都江東区南砂2-3-6-103,避難所,250,-1,0,0,0,0,0,1,1,,35.670601,139.823567,557
13108,南砂第三保育園,東京都江東区南砂2-3-3-102,避難所,240,-1,0,0,0,0,0,1,1,,35.673156,139.822956,558
13108,南砂第四保育園,東京都江東区南砂2-3-4-101,避難所,230,-1,0,0,0,0,0,1,1,,35.6719899991,139.822929,559
13108,南砂第二保育園,東京都江東区南砂2-3-1-101,避難所,230,-1,0,0,0,0,0,1,4,,35.6703103525,139.821974432,560
13108,南砂中学校,東京都江東区南砂2-3-20,避難所,1330,-1,0,0,0,0,0,1,1,,35.673351,139.823678,561
13108,南陽小学校,東京都江東区東陽2-1-20,避難所,1260,-1,0,0,0,0,0,1,1,,35.668518,139.81379,562
13108,白河かもめ保育園,東京都江東区白河1-5-1-101,避難所,250,-1,0,0,0,0,0,1,1,,35.683256,139.799912,563
13108,白河保育園,東京都江東区白河1-7-1,避難所,200,-1,0,0,0,0,0,1,1,,35.683155,139.799683,564
13108,八名川小学校,東京都江東区新大橋3-1-15,避難所,1110,-1,0,0,0,0,0,1,1,,35.687016,139.795684,565
13108,平久小学校,東京都江東区木場1-2-2,避難所,1420,-1,0,0,0,0,0,1,1,,35.668101,139.802292,566
13108,母子生活支援施設パークサイド亀島,東京都江東区亀戸3-36-13,避難所,90,-1,0,0,0,0,0,1,3,,35.706655,139.820159,567
13108,豊洲子ども家庭支援センター,東京都江東区豊洲5-5-1-201,避難所,60,-1,0,0,0,0,0,1,3,,35.6536299991,139.79607,568
13108,豊洲児童館,東京都江東区豊洲4-10-4-111,避難所,250,-1,0,0,0,0,0,1,4,,35.6540148062,139.802673027,569
13108,豊洲小学校,東京都江東区豊洲4-4-4,避難所,2220,-1,0,0,0,0,0,1,1,,35.654186,139.798764,570
13108,豊洲図書館有明スポーツセンター,東京都江東区有明2-3-5,避難所,1300,-1,0,0,0,0,0,1,1,,35.63318,139.78382,571
13108,豊洲文化センター,東京都江東区豊洲2-2-18,避難所,670,-1,0,0,0,0,0,1,1,,35.653872,139.794924,572
13108,豊洲保育園,東京都江東区豊洲4-5-6-101,避難所,200,-1,0,0,0,0,0,1,1,,35.654713,139.799403,573
13108,豊洲北小学校,東京都江東区豊洲3-6-1,避難所,1650,-1,0,0,0,0,0,1,3,,35.658463,139.797824,574
13108,北砂小学校,東京都江東区北砂1-3-36,避難所,1040,-1,0,0,0,0,0,1,1,,35.683183,139.823651,575
13108,北砂保育園,東京都江東区北砂1-1-4-101,避難所,150,-1,0,0,0,0,0,1,1,,35.682349,139.821734,576
13108,墨田工業高等学校,東京都江東区森下5-1-7,避難所,620,-1,0,0,0,0,0,1,1,,35.684905,139.807015,577
13108,明治小学校,東京都江東区深川2-17-26,避難所,1620,-1,0,0,0,0,0,1,1,,35.676128,139.797987,578
13108,毛利小学校,東京都江東区毛利2-2-2,避難所,910,-1,0,0,0,0,0,1,1,,35.691431,139.816291,579
13108,毛利保育園,東京都江東区毛利2-1-14,避難所,210,-1,0,0,0,0,0,1,1,,35.6906539991,139.816207,580
13108,有明小学校,東京都江東区有明2-10-1,避難所,1560,-1,0,0,0,0,0,1,3,,35.6400912231,139.796202,581
13108,有明中学校,東京都江東区有明2-10-1,避難所,1060,-1,0,0,0,0,0,1,3,,35.640154,139.796202,582
13108,臨海小学校,東京都江東区門前仲町1-1-6,避難所,1270,-1,0,0,0,0,0,1,1,,35.672489,139.793182,583
13109,ＪＲアパート・品川区役所一帯,東京都品川区,広域避難場所,38800,40500,0,0,0,0,0,1,3,,35.608822,139.731009,584
13109,戸越公園一帯,東京都品川区,広域避難場所,12000,14200,0,0,0,0,0,1,3,,35.610448,139.72241,585
13109,高輪三丁目・四丁目・御殿山地区,東京都品川区,広域避難場所,85500,114500,0,0,0,0,0,1,3,,35.631593,139.733434,586
13109,自然教育園・聖心女子学院一帯,東京都品川区,広域避難場所,63500,182400,0,0,0,0,0,1,3,,35.639162,139.721031,587
13109,大井ふ頭一帯,東京都品川区,広域避難場所,33900,2.8691E+06,0,0,0,0,0,1,3,,35.5929832962,139.749689364,588
13109,大井競馬場・しながわ区民公園,東京都品川区,広域避難場所,105400,339800,0,0,0,0,0,1,3,,35.593425,139.741244,589
13109,天王洲アイル周辺,東京都品川区,広域避難場所,52500,129000,0,0,0,0,0,1,3,,35.620418,139.750535,590
13109,東京工業大学,東京都品川区,避難場所、広域避難場所,95500,78500,0,0,0,0,0,1,1,,35.604578,139.684109,591
13109,林試の森公園,東京都品川区,広域避難場所,82800,72900,0,0,0,0,0,1,1,,35.6251792,139.70148554,592
13109,ウェルカムセンター原,東京都品川区西大井2-5-21,避難所,860,-1,0,0,0,0,0,1,1,,35.5991209991,139.721481,593
13109,ゆたかシルバーセンター,東京都品川区豊町3-2-15,二次避難所,65,-1,0,0,0,0,0,1,1,,35.608328,139.719606,594
13109,ゆたか児童センター,東京都品川区豊町1-18-15,避難所,298,-1,0,0,0,0,0,1,1,,35.6115219991,139.722717,595
13109,伊藤学園,東京都品川区大井5-1-37,避難所,2916,-1,0,0,0,0,0,1,3,,35.600051,139.725967,596
13109,伊藤児童センター,東京都品川区西大井6-13-1,避難所,110,-1,0,0,0,0,0,1,1,,35.600557,139.71754,597
13109,伊藤小学校,東京都品川区西大井5-6-8,避難所,978,-1,0,0,0,0,0,1,1,,35.598662,139.717329,598
13109,一本橋児童センター,東京都品川区大井2-25-1,避難所,118,-1,0,0,0,0,0,1,1,,35.604578,139.729828,599
13109,荏原第一中学校,東京都品川区荏原1-24-30,避難所,952,-1,0,0,0,0,0,1,1,,35.61941,139.713217,600
13109,荏原第五中学校,東京都品川区旗の台5-11-13,避難所,-1,-1,0,0,0,0,0,1,1,,35.603522,139.701886,601
13109,荏原第三中学校,東京都品川区二葉1-3-40,避難所,836,-1,0,0,0,0,0,1,1,,35.606967,139.725439,602
13109,荏原第四中学校,東京都品川区豊町3-5-31,避難所,864,-1,0,0,0,0,0,1,1,,35.608966,139.721189,603
13109,荏原第二中学校,東京都品川区平塚3-9-1,避難所,788,-1,0,0,0,0,0,1,1,,35.614271,139.712745,604
13109,荏原第六中学校,東京都品川区小山5-20-19,避難所,624,-1,0,0,0,0,0,1,1,,35.616549,139.699913,605
13109,荏原文化センター,東京都品川区中延1-9-15,避難所,600,-1,0,0,0,0,0,1,1,,35.612164,139.710546,606
13109,延山小学校,東京都品川区西中延2-17-5,避難所,1108,-1,0,0,0,0,0,1,1,,35.6086889991,139.707802,607
13109,関ヶ原シルバーセンター,東京都品川区東大井6-11-11,二次避難所,70,-1,0,0,0,0,0,1,1,,35.601885,139.736494,608
13109,旗の台シルバーセンター,東京都品川区旗の台4-13-1,二次避難所,62,-1,0,0,0,0,0,1,1,,35.602578,139.704663,609
13109,旗の台児童センター,東京都品川区旗の台5-19-5,避難所,194,-1,0,0,0,0,0,1,1,,35.603856,139.700441,610
13109,旗の台文化センター,東京都品川区旗の台5-19-5,避難所,165,-1,0,0,0,0,0,1,1,,35.603756,139.700453,611
13109,旗台小学校,東京都品川区旗の台4-7-11,避難所,794,-1,0,0,0,0,0,1,1,,35.603272,139.704358,612
13109,宮前小学校,東京都品川区戸越4-5-10,避難所,984,-1,0,0,0,0,0,1,1,,35.611827,139.718356,613
13109,京陽小学校,東京都品川区平塚2-19-20,避難所,866,-1,0,0,0,0,0,1,1,,35.615132,139.713134,614
13109,教育センター・五反田文化センター,東京都品川区西五反田6-5-1,避難所,237,-1,0,0,0,0,0,1,1,,35.622655,139.716642,615
13109,源氏前小学校,東京都品川区中延6-2-18,避難所,876,-1,0,0,0,0,0,1,1,,35.603467,139.711885,616
13109,戸越小学校,東京都品川区豊町2-1-20,避難所,1020,-1,0,0,0,0,0,1,1,,35.611077,139.721522,617
13109,戸越体育館,東京都品川区豊町2-1-17,避難所,500,-1,0,0,0,0,0,1,1,,35.610839,139.720589,618
13109,戸越台中学校,東京都品川区戸越1-15-23,避難所,980,-1,0,0,0,0,0,1,1,,35.615827,139.717551,619
13109,戸越台特養ホーム,東京都品川区戸越1-15-23,避難所,200,-1,0,0,0,0,0,1,1,,35.6156289991,139.717551,620
13109,五反田シルバーセンター,東京都品川区東五反田2-15-6,二次避難所,34,-1,0,0,0,0,0,1,1,,35.621965,139.729383,621
13109,後地シルバーセンター,東京都品川区小山2-9-19,二次避難所,68,-1,0,0,0,0,0,1,1,,35.620595,139.709131,622
13109,後地児童センター,東京都品川区小山2-9-19,避難所,191,-1,0,0,0,0,0,1,3,,35.6206262962,139.709128161,623
13109,後地小学校,東京都品川区小山2-4-6,避難所,768,-1,0,0,0,0,0,1,1,,35.621604,139.708579,624
13109,御殿山小学校,東京都品川区北品川5-2-6,避難所,732,-1,0,0,0,0,0,1,1,,35.623215,139.73166,625
13109,攻玉社学園,東京都品川区西五反田5-14-2,避難所,750,-1,0,0,0,0,0,1,3,,35.624465,139.71319,626
13109,香蘭女学校,東京都品川区旗の台6-22-21,避難所,1000,-1,0,0,0,0,0,1,1,,35.607744,139.70133,627
13109,鮫浜小学校,東京都品川区東大井2-10-14,避難所,732,-1,0,0,0,0,0,1,1,,35.601524,139.740716,628
13109,三木児童センター,東京都品川区西品川2-6-13,避難所,146,-1,0,0,0,0,0,1,1,,35.6139939991,139.726439,629
13109,三木小学校,東京都品川区西品川3-16-28,避難所,1020,-1,0,0,0,0,0,1,1,,35.615494,139.726744,630
13109,山中小学校,東京都品川区大井3-7-19,避難所,1010,-1,0,0,0,0,0,1,1,,35.60294,139.729994,631
13109,小関児童センター,東京都品川区北品川5-8-15,避難所,229,-1,0,0,0,0,0,1,1,,35.6201189519,139.732473919,632
13109,小山シルバーセンター,東京都品川区小山5-17-8,二次避難所,50,-1,0,0,0,0,0,1,1,,35.614827,139.701385,633
13109,小山小学校,東京都品川区小山5-10-6,避難所,1400,-1,0,0,0,0,0,1,1,,35.616021,139.703163,634
13109,小山台小学校,東京都品川区小山台1-18-24,避難所,912,-1,0,0,0,0,0,1,1,,35.622798,139.703329,635
13109,小野学園,東京都品川区西大井1-6-13,避難所,600,-1,0,0,0,0,0,1,1,,35.602495,139.726245,636
13109,上神明小学校,東京都品川区二葉4-4-10,避難所,840,-1,0,0,0,0,0,1,1,,35.603245,139.71544,637
13109,上大崎シルバーセンター,東京都品川区上大崎1-3-12,二次避難所,56,-1,0,0,0,0,0,1,1,,35.634603,139.722022,638
13109,城南小学校,東京都品川区南品川2-8-21,避難所,732,-1,0,0,0,0,0,1,1,,35.613106,139.742604,639
13109,城南第二小学校,東京都品川区東品川3-4-5,避難所,876,-1,0,0,0,0,0,1,1,,35.61555,139.745993,640
13109,城南中学校,東京都品川区北品川3-9-30,避難所,936,-1,0,0,0,0,0,1,1,,35.61816,139.738077,641
13109,心身障害者福祉会館,東京都品川区旗の台5-2-2,二次避難所,188,-1,0,0,0,0,0,1,1,,35.604828,139.70058,642
13109,新総合体育館,東京都品川区東五反田2-11-2,避難所,2800,-1,0,0,0,0,0,1,4,,35.6240677658,139.728151132,643
13109,水神児童センター,東京都品川区南大井5-13-19,避難所,192,-1,0,0,0,0,0,1,1,,35.595441,139.734133,644
13109,杉野学園,東京都品川区上大崎4-6-19,避難所,1170,-1,0,0,0,0,0,1,1,,35.630742,139.715856,645
13109,星薬科大学,東京都品川区荏原2-4-41,避難所,1000,-1,0,0,0,0,0,1,1,,35.619354,139.711329,646
13109,清水台小学校,東京都品川区旗の台1-11-17,避難所,732,-1,0,0,0,0,0,1,1,,35.6074109991,139.702219,647
13109,清泉女子大学,東京都品川区東五反田3-16-21,避難所,1000,-1,0,0,0,0,0,1,1,,35.627159,139.728438,648
13109,西五反田シルバーセンター,東京都品川区西五反田3-9-10,二次避難所,44,-1,0,0,0,0,0,1,1,,35.626534,139.716899,649
13109,西大井シルバーセンター,東京都品川区西大井1-8-7,二次避難所,60,-1,0,0,0,0,0,1,1,,35.600884,139.723078,650
13109,西中延児童センター,東京都品川区西中延3-8-5,避難所,145,-1,0,0,0,0,0,1,1,,35.607216,139.708163,651
13109,青稜中学校・高等学校,東京都品川区二葉1-6-6,避難所,750,-1,0,0,0,0,0,1,1,,35.608772,139.727744,652
13109,浅間台小学校,東京都品川区南品川6-8-8,避難所,804,-1,0,0,0,0,0,1,1,,35.61155,139.736271,653
13109,総合区民会館（きゅりあん）,東京都品川区東大井5-18-1,避難所,2000,-1,0,0,0,0,0,1,1,,35.606177,139.735836,654
13109,台場小学校,東京都品川区東品川1-8-30,避難所,1324,-1,0,0,0,0,0,1,1,,35.62116,139.743687,655
13109,大井競馬場,東京都品川区勝島2-1-2,避難所,3126,-1,0,0,0,0,0,1,3,,35.5936138134,139.743495331,656
13109,大井倉田児童センター,東京都品川区大井4-11-34,避難所,189,-1,0,0,0,0,0,1,1,,35.602107,139.733716,657
13109,大井第一小学校,東京都品川区大井6-1-32,避難所,1386,-1,0,0,0,0,0,1,1,,35.598524,139.731522,658
13109,大間窪小学校,東京都品川区二葉1-1-2,避難所,984,-1,0,0,0,0,0,1,4,,35.6067774804,139.725624475,659
13109,大原児童センター,東京都品川区戸越6-16-1,避難所,201,-1,0,0,0,0,0,1,1,,35.607328,139.715468,660
13109,大原小学校,東京都品川区戸越6-17-3,避難所,884,-1,0,0,0,0,0,1,1,,35.607272,139.716245,661
13109,大崎シルバーセンター,東京都品川区大崎2-7-13,二次避難所,62,-1,0,0,0,0,0,1,1,,35.616716,139.725855,662
13109,大崎中学校,東京都品川区西品川3-10-6,避難所,880,-1,0,0,0,0,0,1,1,,35.615799,139.723106,663
13109,第一日野小学校,東京都品川区西五反田6-6-19,避難所,876,-1,0,0,0,0,0,1,1,,35.623076,139.717078,664
13109,第三日野小学校,東京都品川区上大崎1-19-19,避難所,1020,-1,0,0,0,0,0,1,1,,35.63288,139.723661,665
13109,第四日野小学校,東京都品川区西五反田4-29-9,避難所,876,-1,0,0,0,0,0,1,1,,35.625659,139.712384,666
13109,第二延山小学校,東京都品川区旗の台1-6-1,避難所,1410,-1,0,0,0,0,0,1,1,,35.609827,139.703413,667
13109,滝王子児童センター,東京都品川区大井5-19-14,避難所,250,-1,0,0,0,0,0,1,1,,35.5983009991,139.728578,668
13109,中延児童センター,東京都品川区西中延1-6-16,避難所,159,-1,0,0,0,0,0,1,1,,35.6125289991,139.708538,669
13109,中延小学校,東京都品川区中延1-11-15,避難所,804,-1,0,0,0,0,0,1,1,,35.612494,139.709607,670
13109,中延特養ホーム,東京都品川区中延6-6-8,避難所,200,-1,0,0,0,0,0,1,1,,35.6016629991,139.711578,671
13109,中原児童センター,東京都品川区小山1-4-1,避難所,560,-1,0,0,0,0,0,1,1,,35.622078,139.712792,672
13109,杜松小学校,東京都品川区豊町4-24-15,避難所,732,-1,0,0,0,0,0,1,1,,35.606022,139.722662,673
13109,都立産業技術高等専門学校,東京都品川区東大井1-10-40,避難所,3000,-1,0,0,0,0,0,1,1,,35.606496,139.748882,674
13109,都立小山台高等学校,東京都品川区小山3-3-32,避難所,2000,-1,0,0,0,0,0,1,1,,35.621187,139.703579,675
13109,都立大崎高等学校,東京都品川区豊町2-1-7,避難所,1000,-1,0,0,0,0,0,1,1,,35.609716,139.720578,676
13109,都立大塚ろう学校品川分校,東京都品川区南品川6-15-20,避難所、二次避難所,1221,-1,0,0,0,0,0,1,3,,35.609698,139.738138,677
13109,都立八潮高等学校,東京都品川区東品川3-27-22,避難所,2000,-1,0,0,0,0,0,1,1,,35.611884,139.746993,678
13109,東海中学校,東京都品川区東品川3-30-15,避難所,942,-1,0,0,0,0,0,1,1,,35.612578,139.748993,679
13109,東五反田児童センター,東京都品川区東五反田5-24-1,避難所,52,-1,0,0,0,0,0,1,1,,35.6280109991,139.723279,680
13109,東大井児童センター,東京都品川区東大井1-22-16,避難所,232,-1,0,0,0,0,0,1,1,,35.6034779991,139.741419,681
13109,東中延児童センター,東京都品川区東中延2-5-10,避難所,223,-1,0,0,0,0,0,1,4,,35.6078869991,139.713966,682
13109,東品川シルバーセンター,東京都品川区東品川3-32-10,二次避難所,150,-1,0,0,0,0,0,1,4,,35.6143451802,139.750880317,683
13109,東品川児童センター,東京都品川区東品川1-34-9,避難所,210,-1,0,0,0,0,0,1,4,,35.6191329991,139.746076,684
13109,南ゆたか児童センター,東京都品川区豊町4-17-21,避難所,120,-1,0,0,0,0,0,1,1,,35.606661,139.721106,685
13109,南大井シルバーセンター,東京都品川区南大井3-7-13,二次避難所,72,-1,0,0,0,0,0,1,1,,35.5917369991,139.734307,686
13109,南大井児童センター,東京都品川区南大井3-7-13,避難所,147,-1,0,0,0,0,0,1,4,,35.5917749991,139.734411,687
13109,南品川シルバーセンター,東京都品川区南品川5-10-3,二次避難所,28,-1,0,0,0,0,0,1,4,,35.6102103508,139.739776299,688
13109,南品川児童センター,東京都品川区南品川4-5-28,避難所,220,-1,0,0,0,0,0,1,1,,35.613605,139.738771,689
13109,日野学園,東京都品川区東五反田2-11-1,避難所,2966,-1,0,0,0,0,0,1,3,,35.6245581294,139.727904582,690
13109,八潮児童センター,東京都品川区八潮5-10-27,避難所、二次避難所,697,-1,0,0,0,0,0,1,3,,35.6001258233,139.7514649,691
13109,八潮小学校,東京都品川区八潮5-11-17,避難所,1158,-1,0,0,0,0,0,1,1,,35.600663,139.751604,692
13109,八潮地域センター１階広間,東京都品川区八潮5-10-27,二次避難所,120,-1,0,0,0,0,0,1,1,,35.600153,139.751255,693
13109,八潮中学校,東京都品川区八潮5-11-2,避難所,1340,-1,0,0,0,0,0,1,1,,35.601246,139.752465,694
13109,八潮南小学校,東京都品川区八潮5-9-11,避難所,906,-1,0,0,0,0,0,1,1,,35.597969,139.752493,695
13109,八潮南中学校,東京都品川区八潮5-9-2,避難所,1112,-1,0,0,0,0,0,1,1,,35.598913,139.752299,696
13109,八潮北小学校,東京都品川区八潮5-2-1,避難所,906,-1,0,0,0,0,0,1,1,,35.604218,139.753298,697
13109,品川エトワール女子高等学校,東京都品川区南品川5-12-4,避難所,800,-1,0,0,0,0,0,1,1,,35.608884,139.740743,698
13109,品川女子学院,東京都品川区北品川3-3-12,避難所,797,-1,0,0,0,0,0,1,1,,35.620827,139.739326,699
13109,品川小学校,東京都品川区北品川3-9-30,避難所,804,-1,0,0,0,0,0,1,1,,35.617883,139.737854,700
13109,浜川小学校,東京都品川区南大井4-3-27,避難所,1092,-1,0,0,0,0,0,1,1,,35.598246,139.735883,701
13109,浜川中学校,東京都品川区東大井3-18-34,避難所,792,-1,0,0,0,0,0,1,1,,35.600329,139.738327,702
13109,冨士見台児童センター,東京都品川区西大井6-1-8,避難所,202,-1,0,0,0,0,0,1,4,,35.6012911886,139.714338277,703
13109,冨士見台中学校,東京都品川区西大井5-5-14,避難所,792,-1,0,0,0,0,0,1,1,,35.598412,139.715246,704
13109,平塚シルバーセンター,東京都品川区平塚2-10-20,二次避難所,60,-1,0,0,0,0,0,1,1,,35.616914,139.713962,705
13109,平塚橋シルバーセンター,東京都品川区西中延1-2-8,二次避難所,98,-1,0,0,0,0,0,1,1,,35.6144,139.709965,706
13109,平塚児童センター,東京都品川区平塚2-2-3,避難所,291,-1,0,0,0,0,0,1,4,,35.618799,139.717439,707
13109,平塚小学校,東京都品川区荏原4-5-31,避難所,804,-1,0,0,0,0,0,1,1,,35.615604,139.707551,708
13109,平塚中学校,東京都品川区平塚3-16-26,避難所,720,-1,0,0,0,0,0,1,1,,35.615604,139.709996,709
13109,朋優学院高等学校,東京都品川区西大井6-1-23,避難所,750,-1,0,0,0,0,0,1,1,,35.600551,139.714468,710
13109,芳水小学校,東京都品川区大崎3-12-22,避難所,880,-1,0,0,0,0,0,1,1,,35.61916,139.724855,711
13109,北品川シルバーセンター,東京都品川区北品川1-29-12,二次避難所,64,-1,0,0,0,0,0,1,1,,35.620533,139.741771,712
13109,北品川児童センター,東京都品川区北品川2-7-21,避難所,147,-1,0,0,0,0,0,1,1,,35.6189379991,139.744243,713
13109,立会小学校,東京都品川区東大井4-15-9,避難所,1192,-1,0,0,0,0,0,1,1,,35.604523,139.740188,714
13109,立正大学,東京都品川区大崎4-2-16,避難所,8500,-1,0,0,0,0,0,1,1,,35.62091,139.7233,715
13109,鈴ヶ森小学校,東京都品川区南大井4-16-2,避難所,1030,-1,0,0,0,0,0,1,1,,35.594385,139.735328,716
13109,鈴ヶ森中学校,東京都品川区南大井2-3-14,避難所,900,-1,0,0,0,0,0,1,1,,35.592997,139.737689,717
13110,かみよん工房,東京都目黒区,補完避難所,-1,-1,1,0,0,0,0,0,1,,35.641925,139.692268,718
13110,ひまわりプラザ,東京都目黒区,補完避難所,-1,-1,1,0,0,0,0,0,3,,35.630839,139.690923,719
13110,めぐろ学校サポートセンター,東京都目黒区,第一次避難場所,-1,-1,0,0,0,0,0,1,3,,35.6393121709,139.70262816,720
13110,烏森住区センター,東京都目黒区上目黒三丁目44番2号,補完避難所,-1,-1,1,0,0,0,0,0,1,,35.643932,139.691644,721
13110,烏森小学校,東京都目黒区上目黒3-37-27,第一次避難場所,-1,-1,0,0,0,0,0,1,1,,35.644434,139.692663,722
13110,緑ヶ丘小学校,東京都目黒区緑が丘2-13-1,第一次避難場所,-1,-1,0,0,0,0,0,1,1,,35.610231,139.673486,723
13110,屋雲住区センター,東京都目黒区八雲一丁目10番5号,補完避難所,-1,-1,1,0,0,0,0,0,1,,35.6187089991,139.67228,724
13110,下目黒住区センター,東京都目黒区下目黒二丁目20番19号,補完避難所,-1,-1,1,0,0,0,0,0,1,,35.632942,139.709904,725
13110,下目黒小学校,東京都目黒区目黒2-7-9,第一次避難場所,-1,-1,0,0,0,0,0,1,1,,35.634186,139.709245,726
13110,下目黒福祉工房,東京都目黒区下目黒3-10-2,補完避難所,-1,-1,1,0,0,0,0,0,1,,35.627853,139.711467,727
13110,宮前小学校,東京都目黒区八雲3-13-21,第一次避難場所,-1,-1,0,0,0,0,0,1,1,,35.615353,139.666999,728
13110,駒場住区センター,東京都目黒区駒場一丁目22番4号,補完避難所,-1,-1,1,0,0,0,0,0,1,,35.656344,139.686555,729
13110,駒場小学校,東京都目黒区駒場3-11-13,第一次避難場所,-1,-1,0,0,0,0,0,1,1,,35.659849,139.681885,730
13110,月光原住区センター,東京都目黒区目黒本町四丁目16番18号,補完避難所,-1,-1,1,0,0,0,0,0,1,,35.622073,139.694686,731
13110,月光原小学校,東京都目黒区目黒本町4-15-3,第一次避難場所,-1,-1,0,0,0,0,0,1,1,,35.623048,139.694997,732
13110,原町住区センター,東京都目黒区南一丁目8番9号,補完避難所,-1,-1,1,0,0,0,0,0,1,,35.6151,139.689352,733
13110,原町小学校,東京都目黒区原町2-18-12,第一次避難場所,-1,-1,0,0,0,0,0,1,1,,35.615576,139.690692,734
13110,五本木住区センター,東京都目黒区中央町二丁目17番2号,補完避難所,-1,-1,1,0,0,0,0,0,1,,35.633039,139.689258,735
13110,五本木小学校,東京都目黒区五本木2-24-3,第一次避難場所,-1,-1,0,0,0,0,0,1,1,,35.63413,139.687719,736
13110,向原住区センター,東京都目黒区目黒本町五丁目22番11号,補完避難所,-1,-1,1,0,0,0,0,0,1,,35.618718,139.698622,737
13110,向原小学校,東京都目黒区目黒本町6-7-15,第一次避難場所,-1,-1,0,0,0,0,0,1,1,,35.618521,139.695719,738
13110,自由が丘住区センター,東京都目黒区自由が丘一丁目24番12号,補完避難所,-1,-1,1,0,0,0,0,0,1,,35.609913,139.669161,739
13110,自由が丘住区センター宮前分室,東京都目黒区八雲三丁目22番15号,補完避難所,-1,-1,1,0,0,0,0,0,1,,35.61564,139.665403,740
13110,上目黒住区センター,東京都目黒区祐天寺二丁目6番6号,補完避難所,-1,-1,1,0,0,0,0,0,1,,35.637083,139.693766,741
13110,上目黒小学校,東京都目黒区五本木1-12-13,第一次避難場所,-1,-1,0,0,0,0,0,1,1,,35.638685,139.690358,742
13110,上目黒福祉工房,東京都目黒区上目黒3-10-8,補完避難所,-1,-1,1,0,0,0,0,0,1,,35.643608,139.697227,743
13110,心身障害者センターあいアイ館,東京都目黒区八雲1-1-8,二次避難所,-1,-1,0,0,0,0,0,1,1,,35.620298,139.672887,744
13110,菅刈住区センター,東京都目黒区青葉台二丁目10番18号,補完避難所,-1,-1,1,0,0,0,0,0,1,,35.649801,139.695613,745
13110,菅刈小学校,東京都目黒区青葉台3-3-26,第一次避難場所,-1,-1,0,0,0,0,0,1,1,,35.651683,139.69244,746
13110,大岡山西住区センター,東京都目黒区平町一丁目15番12号,補完避難所,-1,-1,1,0,0,0,0,0,1,,35.615863,139.679226,747
13110,大岡山東住区センター,東京都目黒区碑文谷三丁目15番5号,補完避難所,-1,-1,1,0,0,0,0,0,1,,35.617849,139.684212,748
13110,大橋えのき園,東京都目黒区大橋2-19-38,補完避難所,-1,-1,1,0,0,0,0,0,1,,35.655349,139.681969,749
13110,大岡山小学校,東京都目黒区平町2-3-1,第一次避難場所,-1,-1,0,0,0,0,0,1,1,,35.615076,139.682942,750
13110,第一中学校,東京都目黒区大橋2-11-1,第一次避難場所,-1,-1,0,0,0,0,0,1,1,,35.654655,139.686357,751
13110,第九中学校,東京都目黒区洗足1-29-26,第一次避難場所,-1,-1,0,0,0,0,0,1,1,,35.613688,139.694858,752
13110,第四中学校,東京都目黒区下目黒6-18-2,第一次避難場所,-1,-1,0,0,0,0,0,1,1,,35.628575,139.69683,753
13110,第七中学校,東京都目黒区碑文谷1-1-33,第一次避難場所,-1,-1,0,0,0,0,0,1,1,,35.622964,139.691803,754
13110,第十一中学校,東京都目黒区緑が丘1-8-1,第一次避難場所,-1,-1,0,0,0,0,0,1,1,,35.609466,139.679137,755
13110,第十中学校,東京都目黒区八雲5-2-1,第一次避難場所,-1,-1,0,0,0,0,0,1,1,,35.624353,139.668693,756
13110,第八中学校,東京都目黒区碑文谷4-19-25,第一次避難場所,-1,-1,0,0,0,0,0,1,1,,35.619687,139.682526,757
13110,第六中学跡地,東京都目黒区中央町二丁目32番5号,第一次避難場所,-1,-1,0,0,0,0,0,1,3,,35.6313851454,139.688684609,758
13110,鷹番住区センター,東京都目黒区鷹番三丁目17番20号,補完避難所,-1,-1,1,0,0,0,0,0,1,,35.628225,139.683159,759
13110,鷹番小学校,東京都目黒区中央町1-20-26,第一次避難場所,-1,-1,0,0,0,0,0,1,1,,35.627686,139.690191,760
13110,中根住区センター,東京都目黒区大岡山一丁目37番2号,補完避難所,-1,-1,1,0,0,0,0,0,1,,35.612696,139.679549,761
13110,中根小学校,東京都目黒区緑が丘1-1-1,第一次避難場所,-1,-1,0,0,0,0,0,1,1,,35.612715,139.67836,762
13110,中目黒スクエア,東京都目黒区,補完避難所,-1,-1,1,0,0,0,0,0,3,,35.6404069991,139.703051,763
13110,中目黒小学校,東京都目黒区中目黒3-13-32,第一次避難場所,-1,-1,0,0,0,0,0,1,1,,35.640018,139.699329,764
13110,田道ふれあい館,東京都目黒区,補完避難所,-1,-1,1,0,0,0,0,0,3,,35.6367329991,139.708201,765
13110,田道住区センター三田分室,東京都目黒区三田二丁目10番33号,補完避難所,-1,-1,1,0,0,0,0,0,1,,35.638819,139.712487,766
13110,田道小学校,東京都目黒区目黒1-15-28,第一次避難場所,-1,-1,0,0,0,0,0,1,1,,35.637435,139.709023,767
13110,都立駒場高校,東京都目黒区大橋2-18-1,第一次避難場所,-1,-1,0,0,0,0,0,1,1,,35.655183,139.685274,768
13110,都立芸術高校,東京都目黒区大橋2-18-58,第一次避難場所,-1,-1,0,0,0,0,0,1,1,,35.654544,139.684497,769
13110,都立国際高校,東京都目黒区駒場2-19-59,第一次避難場所,-1,-1,0,0,0,0,0,1,1,,35.6591539991,139.678969,770
13110,都立大附属高校及びめぐろ区民キャンパス,東京都目黒区,第一次避難場所,-1,-1,0,0,0,0,0,1,3,,35.6211285542,139.672087831,771
13110,都立目黒高校,東京都目黒区祐天寺2-7-15,第一次避難場所,-1,-1,0,0,0,0,0,1,1,,35.6373789991,139.694774,772
13110,東根住区センター,東京都目黒区東が丘一丁目7番14号,補完避難所,-1,-1,1,0,0,0,0,0,1,,35.627272,139.669996,773
13110,東根小学校,東京都目黒区東が丘1-20-1,第一次避難場所,-1,-1,0,0,0,0,0,1,1,,35.62713,139.667999,774
13110,東山住区センター,東京都目黒区東山三丁目19番18号,補完避難所,-1,-1,1,0,0,0,0,0,1,,35.64867,139.687133,775
13110,東山小学校,東京都目黒区東山2-24-25,第一次避難場所,-1,-1,0,0,0,0,0,1,1,,35.646961,139.685802,776
13110,東山地区センター,東京都目黒区,補完避難所,-1,-1,1,0,0,0,0,0,3,,35.647934,139.685413,777
13110,東山中学校,東京都目黒区東山1-24-31,第一次避難場所,-1,-1,0,0,0,0,0,1,1,,35.646489,139.690246,778
13110,特別養護老人ホーム駒場苑,東京都目黒区大橋2-19-1,二次避難所,-1,-1,0,0,0,0,0,1,4,,35.6554312161,139.682959638,779
13110,特別養護老人ホーム清徳苑,東京都目黒区,二次避難所,-1,-1,0,0,0,0,0,1,4,,35.6227668556,139.698096725,780
13110,特別養護老人ホーム青葉台さくら苑,東京都目黒区青葉台3-21-6,二次避難所,-1,-1,0,0,0,0,0,1,1,,35.649489,139.692052,781
13110,特別養護老人ホーム中目黒,東京都目黒区中目黒5-7-35,二次避難所,-1,-1,0,0,0,0,0,1,4,,35.6360995336,139.700897955,782
13110,特別養護老人ホーム東が丘,東京都目黒区東が丘1-6-4,二次避難所,-1,-1,0,0,0,0,0,1,4,,35.6263249991,139.670526,783
13110,特別養護老人ホーム東山,東京都目黒区東山3-24-6,二次避難所,-1,-1,0,0,0,0,0,1,1,,35.647307,139.68591,784
13110,南部地区センター,東京都目黒区,補完避難所,-1,-1,1,0,0,0,0,0,3,,35.625277,139.695215,785
13110,八雲小学校,東京都目黒区八雲2-5-1,第一次避難場所,-1,-1,0,0,0,0,0,1,1,,35.617937,139.671277,786
13110,碑住区センター,東京都目黒区碑文谷二丁目16番6号,補完避難所,-1,-1,1,0,0,0,0,0,1,,35.620768,139.687667,787
13110,碑小学校,東京都目黒区碑文谷1-18-2,第一次避難場所,-1,-1,0,0,0,0,0,1,1,,35.6193539991,139.690525,788
13110,碑文谷公園,東京都目黒区,第一次避難場所,-1,-1,0,0,0,0,0,1,1,,35.62587,139.68228,789
13110,不動住区センター,東京都目黒区下目黒六丁目8番23号,補完避難所,-1,-1,1,0,0,0,0,0,1,,35.626409,139.701038,790
13110,不動小学校,東京都目黒区下目黒6-11-35,第一次避難場所,-1,-1,0,0,0,0,0,1,1,,35.627131,139.699107,791
13110,目黒区区民センター,東京都目黒区,補完避難所,-1,-1,1,0,0,0,0,0,1,,35.6355119991,139.708469,792
13110,目黒中央中学校,東京都目黒区中央町2-32-5,第一次避難場所,-1,-1,0,0,0,0,0,1,4,,35.6346377736,139.693782829,793
13110,油面住区センター,東京都目黒区中町一丁目6番23号,補完避難所,-1,-1,1,0,0,0,0,0,1,,35.631375,139.699769,794
13110,油面小学校,東京都目黒区中町1-5-4,第一次避難場所,-1,-1,0,0,0,0,0,1,1,,35.632463,139.698413,795
13110,緑が丘コミュニティーセンター（別館）,東京都目黒区緑が丘二丁目7番20号,補完避難所,-1,-1,1,0,0,0,0,0,3,,35.6094379991,139.674304,796
13110,緑が丘コミュニティーセンター（本館）,東京都目目黒区緑が丘二丁目14番23号,補完避難所,-1,-1,1,0,0,0,0,0,4,,35.609362,139.673309,797
13111,うめのき園（本園）,東京都大田区東糀谷5-17-14-101,福祉避難所,-1,-1,0,0,0,0,0,1,1,,35.557474,139.744524,798
13111,おなづか小学校,東京都大田区西蒲田1-19-1,避難所,-1,-1,0,0,0,0,0,1,1,,35.570777,139.712636,799
13111,くすのき園,東京都大田区南六郷3-23-9,福祉避難所,-1,-1,0,0,0,0,0,1,1,,35.541337,139.714499,800
13111,こども発達センターわかばの家,東京都大田区千鳥3-7-5,福祉避難所,-1,-1,0,0,0,0,0,1,1,,35.573027,139.690361,801
13111,コミュニティセンター羽田旭,東京都大田区羽田旭町7-1,避難所,-1,-1,0,0,0,0,0,1,1,,35.553648,139.747272,802
13111,こらぼ大森,東京都大田区大森西2-16-2,避難所,-1,-1,0,0,0,0,0,1,1,,35.576816,139.730052,803
13111,しいのき園,東京都大田区西糀谷2-9-12,福祉避難所,-1,-1,0,0,0,0,0,1,4,,35.5603322275,139.737555608,804
13111,ふれあいはすぬま,東京都大田区西蒲田3-19-1,避難所,-1,-1,0,0,0,0,0,1,1,,35.56817,139.707866,805
13111,安方中学校,東京都大田区東矢口2-1-1,避難所,-1,-1,0,0,0,0,0,1,1,,35.566722,139.70161,806
13111,羽田小学校,東京都大田区羽田3-3-14,避難所,-1,-1,0,0,0,0,0,1,1,,35.547976,139.746163,807
13111,羽田中学校,東京都大田区東糀谷6-10-12,避難所,-1,-1,0,0,0,0,0,1,1,,35.556975,139.750385,808
13111,開桜小学校,東京都大田区大森西2-26-3,避難所,-1,-1,0,0,0,0,0,1,1,,35.575749,139.731551,809
13111,貝塚中学校,東京都大田区中馬込3-13-1,避難所,-1,-1,0,0,0,0,0,1,1,,35.593912,139.705025,810
13111,蒲田小学校,東京都大田区蒲田1-30-1,避難所,-1,-1,0,0,0,0,0,1,1,,35.563833,139.720413,811
13111,蒲田中学校,東京都大田区蒲田1-12-5,避難所,-1,-1,0,0,0,0,0,1,1,,35.566055,139.719163,812
13111,蒲田電車区一帯,東京都大田区,避難場所,56800,65700,0,0,0,0,0,1,3,,35.557172996,139.713541662,813
13111,久が原福祉園,東京都大田区久が原1-2-5,福祉避難所,-1,-1,0,0,0,0,0,1,1,,35.587362,139.692993,814
13111,久原小学校,東京都大田区久が原4-12-10,避難所,-1,-1,0,0,0,0,0,1,1,,35.580275,139.694165,815
13111,御園中学校,東京都大田区西蒲田8-5-1,避難所,-1,-1,0,0,0,0,0,1,1,,35.561222,139.712026,816
13111,高畑小学校,東京都大田区西六郷3-28-23,避難所,-1,-1,0,0,0,0,0,1,1,,35.545031,139.706472,817
13111,山王小学校,東京都大田区山王1-26-33,避難所,-1,-1,0,0,0,0,0,1,1,,35.592024,139.725523,818
13111,志茂田小学校,東京都大田区西六郷1-4-2,避難所,-1,-1,0,0,0,0,0,1,1,,35.55514,139.711443,819
13111,志茂田中学校,東京都大田区西六郷1-4-10,避難所,-1,-1,0,0,0,0,0,1,1,,35.555557,139.710387,820
13111,出雲小学校,東京都大田区本羽田1-2-4,避難所,-1,-1,0,0,0,0,0,1,1,,35.550113,139.725497,821
13111,出雲中学校,東京都大田区本羽田3-4-15,避難所,-1,-1,0,0,0,0,0,1,1,,35.549058,139.737441,822
13111,小池小学校,東京都大田区上池台2-22-7,避難所,-1,-1,0,0,0,0,0,1,1,,35.59769,139.694773,823
13111,昭和島野球場一帯,東京都大田区,避難場所,21200,65300,0,0,0,0,0,1,3,,35.570708,139.747456,824
13111,松仙小学校,東京都大田区久が原1-11-1,避難所,-1,-1,0,0,0,0,0,1,1,,35.585663,139.690971,825
13111,上池台障害者福祉会館,東京都大田区上池台5-5-1,福祉避難所,-1,-1,0,0,0,0,0,1,1,,35.595551,139.701608,826
13111,新井宿福祉園,東京都大田区中央2-13-2,福祉避難所,-1,-1,0,0,0,0,0,1,1,,35.578415,139.719746,827
13111,新蒲田福祉センター,東京都大田区新蒲田1-18-23,福祉避難所,-1,-1,0,0,0,0,0,1,1,,35.557446,139.710953,828
13111,新宿小学校,東京都大田区蒲田本町1-5-1,避難所,-1,-1,0,0,0,0,0,1,1,,35.557195,139.715914,829
13111,森ヶ崎公園・大森一中,東京都大田区,避難場所,16600,42700,0,0,0,0,0,1,3,,35.562665,139.750922,830
13111,清水窪小学校,東京都大田区北千束1-20-15,避難所,-1,-1,0,0,0,0,0,1,1,,35.609244,139.688276,831
13111,西六郷小学校,東京都大田区西六郷2-3-1,避難所,-1,-1,0,0,0,0,0,1,1,,35.551696,139.709277,832
13111,石川台中学校,東京都大田区石川町2-23-1,避難所,-1,-1,0,0,0,0,0,1,1,,35.599217,139.681582,833
13111,赤松小学校,東京都大田区北千束2-35-8,避難所,-1,-1,0,0,0,0,0,1,1,,35.606216,139.692303,834
13111,雪谷小学校,東京都大田区南雪谷3-9-23,避難所,-1,-1,0,0,0,0,0,1,1,,35.592885,139.686804,835
13111,雪谷中学校,東京都大田区南雪谷5-1-1,避難所,-1,-1,0,0,0,0,0,1,1,,35.590913,139.689054,836
13111,千鳥小学校,東京都大田区千鳥2-5-1,避難所,-1,-1,0,0,0,0,0,1,1,,35.571277,139.691805,837
13111,洗足池小学校,東京都大田区南千束3-35-2,避難所,-1,-1,0,0,0,0,0,1,1,,35.599939,139.686415,838
13111,相生小学校,東京都大田区西蒲田6-19-1,避難所,-1,-1,0,0,0,0,0,1,1,,35.565777,139.711998,839
13111,多摩川河川敷・ガス橋一帯,東京都大田区,避難場所,225300,323400,0,0,0,0,0,1,3,,35.5747875547,139.674377804,840
13111,多摩川河川敷・田園調布先一帯,東京都大田区,広域避難場所、避難場所,91000,197400,0,0,0,0,0,1,3,,35.6192406254,139.59878143,841
13111,多摩川河川敷・六郷橋一帯,東京都大田区,避難場所,74500,498700,0,0,0,0,0,1,3,,35.541562742,139.700741297,842
13111,多摩川小学校,東京都大田区矢口3-26-25,避難所,-1,-1,0,0,0,0,0,1,1,,35.559362,139.69089,843
13111,大森第一小学校,東京都大田区大森東3-1-18,避難所,-1,-1,0,0,0,0,0,1,1,,35.570916,139.735329,844
13111,大森第一中学校,東京都大田区大森南5-6-5,避難所,-1,-1,0,0,0,0,0,1,1,,35.562057,139.751801,845
13111,大森第五小学校,東京都大田区大森本町1-10-5,避難所,-1,-1,0,0,0,0,0,1,1,,35.581943,139.737884,846
13111,大森第三小学校,東京都大田区大森西5-22-18,避難所,-1,-1,0,0,0,0,0,1,1,,35.570777,139.725885,847
13111,大森第三中学校,東京都大田区中央4-12-8,避難所,-1,-1,0,0,0,0,0,1,1,,35.580525,139.715691,848
13111,大森第四小学校,東京都大田区大森南3-18-26,避難所,-1,-1,0,0,0,0,0,1,1,,35.565556,139.742468,849
13111,大森第四中学校,東京都大田区池上1-15-1,避難所,-1,-1,0,0,0,0,0,1,4,,35.5779516463,139.709170581,850
13111,大森第七中学校,東京都大田区南久が原1-3-1,避難所,-1,-1,0,0,0,0,0,1,1,,35.578248,139.68986,851
13111,大森第十中学校,東京都大田区仲池上2-13-1,避難所,-1,-1,0,0,0,0,0,1,1,,35.584941,139.700053,852
13111,大森第二中学校,東京都大田区大森北6-18-1,避難所,-1,-1,0,0,0,0,0,1,1,,35.579526,139.732245,853
13111,大森第八中学校,東京都大田区大森西2-21-1,避難所,-1,-1,0,0,0,0,0,1,1,,35.575915,139.72719,854
13111,大森第六中学校,東京都大田区南千束1-33-1,避難所,-1,-1,0,0,0,0,0,1,1,,35.601911,139.693081,855
13111,大森東小学校,東京都大田区大森東1-29-1,避難所,-1,-1,0,0,0,0,0,1,1,,35.57561,139.738634,856
13111,大森東中学校,東京都大田区大森東4-1-1,避難所,-1,-1,0,0,0,0,0,1,1,,35.569139,139.736246,857
13111,大森東福祉園,東京都大田区大森東1-36-7,福祉避難所,-1,-1,0,0,0,0,0,1,4,,35.5758622462,139.740188309,858
13111,大田生活実習所,東京都大田区萩中2-10-11,福祉避難所,-1,-1,0,0,0,0,0,1,1,,35.55078,139.730469,859
13111,大田福祉作業所（本場）,東京都大田区大森西3-3-9,福祉避難所,-1,-1,0,0,0,0,0,1,1,,35.5746379991,139.730412,860
13111,大田翔裕園,東京都大田区東六郷1-12-12,福祉避難所,-1,-1,0,0,0,0,0,1,4,,35.5535533746,139.720069555,861
13111,池上小学校,東京都大田区池上1-33-8,避難所,-1,-1,0,0,0,0,0,1,4,,35.576554,139.705748,862
13111,池上第二小学校,東京都大田区中央8-9-1,避難所,-1,-1,0,0,0,0,0,1,1,,35.573915,139.713414,863
13111,池上福祉園,東京都大田区池上6-40-3,福祉避難所,-1,-1,0,0,0,0,0,1,1,,35.567805,139.705582,864
13111,池上本門寺一帯,東京都大田区,避難場所,56700,57800,0,0,0,0,0,1,3,,35.579674,139.705195,865
13111,池雪小学校,東京都大田区東雪谷5-7-1,避難所,-1,-1,0,0,0,0,0,1,1,,35.59044,139.694942,866
13111,中萩中小学校,東京都大田区萩中2-14-1,避難所,-1,-1,0,0,0,0,0,1,1,,35.55003,139.731914,867
13111,中富小学校,東京都大田区大森東5-6-24,避難所,-1,-1,0,0,0,0,0,1,1,,35.56975,139.74119,868
13111,仲六郷小学校,東京都大田区仲六郷1-26-1,避難所,-1,-1,0,0,0,0,0,1,1,,35.553585,139.716887,869
13111,調布大塚小学校,東京都大田区雪谷大塚町12-1,避難所,-1,-1,0,0,0,0,0,1,1,,35.590774,139.678194,870
13111,田園調布小学校,東京都大田区田園調布2-31-16,避難所,-1,-1,0,0,0,0,0,1,1,,35.595495,139.668472,871
13111,田園調布中学校,東京都大田区田園調布2-60-1,避難所,-1,-1,0,0,0,0,0,1,1,,35.598245,139.669556,872
13111,都南小学校,東京都大田区本羽田3-15-2,避難所,-1,-1,0,0,0,0,0,1,1,,35.547142,139.735969,873
13111,都立城南特別支援学校,東京都大田区東六郷2-18-19,福祉避難所,-1,-1,0,0,0,0,0,1,1,,35.547752,139.716498,874
13111,都立田園調布特別支援学校,東京都大田区田園調布5-43-6,福祉避難所,-1,-1,0,0,0,0,0,1,1,,35.595384,139.65489,875
13111,都立矢口特別支援学校,東京都大田区矢口1-26-10,福祉避難所,-1,-1,0,0,0,0,0,1,1,,35.5650829991,139.694417,876
13111,東蒲小学校,東京都大田区東蒲田1-19-25,避難所,-1,-1,0,0,0,0,0,1,1,,35.563917,139.728663,877
13111,東蒲中学校,東京都大田区東蒲田2-38-1,避難所,-1,-1,0,0,0,0,0,1,1,,35.560862,139.72908,878
13111,東京国際空港,東京都大田区,避難場所,28800,296700,0,0,0,0,0,1,1,,35.54837,139.783959,880
13111,東調布第一小学校,東京都大田区田園調布南28-7,避難所,-1,-1,0,0,0,0,0,1,1,,35.582636,139.677528,881
13111,東調布第三小学校,東京都大田区南久が原2-17-1,避難所,-1,-1,0,0,0,0,0,1,1,,35.577304,139.68525,882
13111,東調布中学校,東京都大田区田園調布南29-15,避難所,-1,-1,0,0,0,0,0,1,1,,35.583386,139.678806,883
13111,東六郷小学校,東京都大田区東六郷2-3-1,避難所,-1,-1,0,0,0,0,0,1,1,,35.550668,139.718192,884
13111,東糀谷小学校,東京都大田区東糀谷5-18-23,避難所,-1,-1,0,0,0,0,0,1,1,,35.558641,139.744329,885
13111,道塚小学校,東京都大田区新蒲田3-3-18,避難所,-1,-1,0,0,0,0,0,1,1,,35.558279,139.707138,886
13111,徳持小学校,東京都大田区池上7-18-1,避難所,-1,-1,0,0,0,0,0,1,1,,35.569971,139.701137,887
13111,特別養護老人ホームたまがわ,東京都大田区下丸子4-23-1,福祉避難所,-1,-1,0,0,0,0,0,1,1,,35.57086,139.679196,888
13111,特別養護老人ホーム羽田,東京都大田区本羽田3-23-45,福祉避難所,-1,-1,0,0,0,0,0,1,1,,35.545786,139.735809,889
13111,特別養護老人ホーム蒲田,東京都大田区蒲田2-8-8,福祉避難所,-1,-1,0,0,0,0,0,1,1,,35.566034,139.727381,890
13111,特別養護老人ホーム大森,東京都大田区大森西1-16-18,福祉避難所,-1,-1,0,0,0,0,0,1,1,,35.575351,139.725442,891
13111,特別養護老人ホーム池上,東京都大田区仲池上2-24-8,福祉避難所,-1,-1,0,0,0,0,0,1,1,,35.5846289991,139.6978,892
13111,特別養護老人ホーム糀谷,東京都大田区西糀谷2-12-1,福祉避難所,-1,-1,0,0,0,0,0,1,1,,35.559394,139.737546,893
13111,南蒲小学校,東京都大田区南蒲田1-12-11,避難所,-1,-1,0,0,0,0,0,1,1,,35.55814,139.726913,894
13111,南六郷小学校,東京都大田区南六郷3-7-1,避難所,-1,-1,0,0,0,0,0,1,1,,35.54492,139.716332,895
13111,南六郷中学校,東京都大田区南六郷3-2-1,避難所,-1,-1,0,0,0,0,0,1,1,,35.546253,139.716665,896
13111,南六郷福祉園,東京都大田区南六郷3-23-8,福祉避難所,-1,-1,0,0,0,0,0,1,1,,35.541726,139.714332,897
13111,入新井第一小学校,東京都大田区大森北4-6-7,避難所,-1,-1,0,0,0,0,0,1,1,,35.584109,139.727273,898
13111,入新井第五小学校,東京都大田区大森北6-4-8,避難所,-1,-1,0,0,0,0,0,1,1,,35.581081,139.733745,899
13111,入新井第四小学校,東京都大田区中央3-5-8,避難所,-1,-1,0,0,0,0,0,1,1,,35.57747,139.716858,900
13111,入新井第二小学校,東京都大田区中央2-15-1,避難所,-1,-1,0,0,0,0,0,1,1,,35.578803,139.720691,901
13111,馬込小学校,東京都大田区南馬込1-34-1,避難所,-1,-1,0,0,0,0,0,1,1,,35.591496,139.71108,902
13111,馬込第三小学校,東京都大田区北馬込1-28-1,避難所,-1,-1,0,0,0,0,0,1,1,,35.598662,139.706969,903
13111,馬込第二小学校,東京都大田区南馬込3-10-1,避難所,-1,-1,0,0,0,0,0,1,1,,35.587386,139.717552,904
13111,馬込中学校,東京都大田区西馬込2-35-6,避難所,-1,-1,0,0,0,0,0,1,1,,35.584552,139.70297,905
13111,馬込東中学校,東京都大田区南馬込2-26-30,避難所,-1,-1,0,0,0,0,0,1,1,,35.589719,139.717385,906
13111,梅田小学校,東京都大田区南馬込6-6-1,避難所,-1,-1,0,0,0,0,0,1,1,,35.584052,139.707136,907
13111,萩中公園・大師橋緑地,東京都大田区,避難場所,39700,169400,0,0,0,0,0,1,1,,35.5500740191,139.73791483,908
13111,萩中小学校,東京都大田区本羽田3-4-22,避難所,-1,-1,0,0,0,0,0,1,1,,35.549003,139.738663,909
13111,平和島地区,東京都大田区,避難場所,124600,565400,0,0,0,0,0,1,3,,35.580651,139.741952,910
13111,北蒲広場,東京都大田区蒲田2-10-1,避難所,-1,-1,0,0,0,0,0,1,3,,35.565838,139.725728,911
13111,北糀谷小学校,東京都大田区北糀谷2-2-5,避難所,-1,-1,0,0,0,0,0,1,1,,35.562917,139.733635,912
13111,矢口小学校,東京都大田区多摩川1-18-22,避難所,-1,-1,0,0,0,0,0,1,1,,35.562834,139.698277,913
13111,矢口西小学校,東京都大田区下丸子1-7-1,避難所,-1,-1,0,0,0,0,0,1,1,,35.568166,139.687445,914
13111,矢口中学校,東京都大田区下丸子2-23-1,避難所,-1,-1,0,0,0,0,0,1,1,,35.563639,139.685612,915
13111,矢口東小学校,東京都大田区東矢口3-9-20,避難所,-1,-1,0,0,0,0,0,1,1,,35.563611,139.705137,916
13111,嶺町小学校,東京都大田区田園調布南6-10,避難所,-1,-1,0,0,0,0,0,1,1,,35.578248,139.67439,917
13111,蓮沼中学校,東京都大田区西蒲田2-3-1,避難所,-1,-1,0,0,0,0,0,1,1,,35.570693,139.707887,918
13111,六郷小学校,東京都大田区東六郷3-7-1,避難所,-1,-1,0,0,0,0,0,1,1,,35.545086,139.714166,919
13111,六郷中学校,東京都大田区仲六郷3-11-11,避難所,-1,-1,0,0,0,0,0,1,1,,35.548308,139.710777,920
13111,糀谷小学校,東京都大田区西糀谷3-13-21,避難所,-1,-1,0,0,0,0,0,1,1,,35.555391,139.73433,921
13111,糀谷中学校,東京都大田区西糀谷3-6-23,避難所,-1,-1,0,0,0,0,0,1,1,,35.556252,139.736441,922
13112,きたみふれあい広場一帯,東京都世田谷区,広域避難場所,7800,35800,0,0,0,0,0,1,3,,35.642118,139.58765,923
13112,すきっぷ,東京都世田谷区船橋5-33-1,二次避難所,-1,-1,0,0,0,0,0,1,1,,35.657431,139.625418,924
13112,すまいる梅丘,東京都世田谷区梅丘1-36-2-101,二次避難所,-1,-1,0,0,0,0,0,1,3,,35.656218,139.651042,925
13112,セント・メリーズ・インターナショナル・スクール,東京都世田谷区瀬田1-6-19,避難所,-1,-1,0,0,0,0,0,1,3,,35.6145884916,139.632792188,926
13112,ほほえみ経堂,東京都世田谷区経堂3-6-24,二次避難所,-1,-1,0,0,0,0,0,1,3,,35.649766,139.631929,927
13112,ゆうぽうと世田谷レクセンター,東京都世田谷区鎌田2-17-1,避難所,-1,-1,0,0,0,0,0,1,1,,35.619762,139.610464,928
13112,旭小学校,東京都世田谷区野沢1-4-3,避難所,-1,-1,0,0,0,0,0,1,1,,35.635324,139.670248,929
13112,芦花公園・明大八幡山グランド一帯,東京都世田谷区,広域避難場所、避難場所,97000,255000,0,0,0,0,0,1,3,,35.661908,139.615932,930
13112,芦花小学校,東京都世田谷区粕谷2-22-1,避難所,-1,-1,0,0,0,0,0,1,1,,35.666041,139.611669,931
13112,芦花中学校,東京都世田谷区粕谷2-22-2,避難所,-1,-1,0,0,0,0,0,1,1,,35.666207,139.61078,932
13112,烏山中学校,東京都世田谷区南烏山4-26-1,避難所,-1,-1,0,0,0,0,0,1,1,,35.671984,139.600836,933
13112,烏山北小学校,東京都世田谷区北烏山6-3-1,避難所,-1,-1,0,0,0,0,0,1,1,,35.674012,139.599475,934
13112,羽根木公園一帯,東京都世田谷区,広域避難場所,22700,51400,0,0,0,0,0,1,1,,35.6586299991,139.65475,935
13112,奥沢小学校,東京都世田谷区奥沢3-1-1,避難所,-1,-1,0,0,0,0,0,1,1,,35.5998,139.674888,936
13112,奥沢中学校,東京都世田谷区奥沢1-42-1,避難所,-1,-1,0,0,0,0,0,1,1,,35.602494,139.679554,937
13112,奥沢福祉園,東京都世田谷区奥沢6-29-2,二次避難所,-1,-1,0,0,0,0,0,1,3,,35.605266,139.66502,938
13112,岡本福祉作業ホーム,東京都世田谷区岡本2-33-24,二次避難所,-1,-1,0,0,0,0,0,1,1,,35.6235739991,139.617115,939
13112,岡本福祉作業ホーム玉堤分場,東京都世田谷区玉堤2-3-1,二次避難所,-1,-1,0,0,0,0,0,1,1,,35.598411,139.648807,940
13112,下馬福祉工房,東京都世田谷区下馬2-20-14,二次避難所,-1,-1,0,0,0,0,0,1,1,,35.640684,139.675415,941
13112,下北沢成徳高等学校,東京都世田谷区代田6-12-39,避難所,-1,-1,0,0,0,0,0,1,1,,35.665042,139.664887,942
13112,花見堂小学校,東京都世田谷区代田1-13-9,避難所,-1,-1,0,0,0,0,0,1,1,,35.65196,139.662721,943
13112,学芸大学附属高校一帯,東京都世田谷区,広域避難場所,14900,23500,0,0,0,0,0,1,3,,35.634567,139.677161,944
13112,喜多見小学校,東京都世田谷区喜多見3-11-1,避難所,-1,-1,0,0,0,0,0,1,1,,35.625879,139.601394,945
13112,喜多見中学校,東京都世田谷区喜多見4-20-1,避難所,-1,-1,0,0,0,0,0,1,1,,35.625657,139.594311,946
13112,希望丘小学校,東京都世田谷区船橋4-9-1,避難所,-1,-1,0,0,0,0,0,1,1,,35.656598,139.621613,947
13112,希望丘中学校,東京都世田谷区船橋6-25-1,避難所,-1,-1,0,0,0,0,0,1,1,,35.659014,139.620696,948
13112,砧公園・大蔵運動公園一帯,東京都世田谷区,広域避難場所,70700,489800,0,0,0,0,0,1,3,,35.630128,139.615889,949
13112,砧工房,東京都世田谷区砧4-32-14,二次避難所,-1,-1,0,0,0,0,0,1,1,,35.643516,139.614475,950
13112,砧工房分場キタミクリーンファーム,東京都世田谷区喜多見7-3-1,二次避難所,-1,-1,0,0,0,0,0,1,3,,35.629735,139.596439,951
13112,砧小学校,東京都世田谷区喜多見6-9-1,避難所,-1,-1,0,0,0,0,0,1,1,,35.631767,139.60531,952
13112,砧中学校,東京都世田谷区成城1-10-1,避難所,-1,-1,0,0,0,0,0,1,1,,35.633572,139.60081,953
13112,砧南小学校,東京都世田谷区鎌田4-3-1,避難所,-1,-1,0,0,0,0,0,1,1,,35.622908,139.61231,954
13112,砧南中学校,東京都世田谷区鎌田3-13-20,避難所,-1,-1,0,0,0,0,0,1,1,,35.621463,139.613393,955
13112,給田小学校,東京都世田谷区給田4-24-1,避難所,-1,-1,0,0,0,0,0,1,1,,35.671345,139.592476,956
13112,京西小学校,東京都世田谷区用賀4-27-4,避難所,-1,-1,0,0,0,0,0,1,1,,35.629101,139.631446,957
13112,玉川小学校,東京都世田谷区中町2-29-1,避難所,-1,-1,0,0,0,0,0,1,1,,35.610881,139.643557,958
13112,玉川中学校,東京都世田谷区中町4-21-1,避難所,-1,-1,0,0,0,0,0,1,1,,35.616714,139.643474,959
13112,玉川福祉作業所,東京都世田谷区玉川1-7-2,二次避難所,-1,-1,0,0,0,0,0,1,1,,35.610382,139.628059,960
13112,玉川福祉作業所等々力分場,東京都世田谷区等々力2-13-4,二次避難所,-1,-1,0,0,0,0,0,1,3,,35.6060298816,139.649937913,961
13112,玉川野毛町公園一帯,東京都世田谷区,広域避難場所,12100,44700,0,0,0,0,0,1,3,,35.605093,139.642518,962
13112,玉堤小学校,東京都世田谷区玉堤2-11-1,避難所,-1,-1,0,0,0,0,0,1,1,,35.599827,139.64753,963
13112,九品仏小学校,東京都世田谷区奥沢8-12-1,避難所,-1,-1,0,0,0,0,0,1,1,,35.603299,139.660084,964
13112,九品仏生活実習所,東京都世田谷区奥沢7-39-13,二次避難所,-1,-1,0,0,0,0,0,1,3,,35.6079549369,139.658708493,965
13112,駒繋小学校,東京都世田谷区下馬1-42-12,避難所,-1,-1,0,0,0,0,0,1,1,,35.640295,139.680664,966
13112,駒場学園,東京都世田谷区代沢1-23-8,避難所,-1,-1,0,0,0,0,0,1,1,,35.656044,139.677414,967
13112,駒沢オリンピック公園一帯,東京都世田谷区,広域避難場所,148900,299600,0,0,0,0,0,1,3,,35.6254552477,139.661548823,969
13112,駒沢小学校,東京都世田谷区駒沢2-10-6,避難所,-1,-1,0,0,0,0,0,1,1,,35.633074,139.657805,970
13112,駒沢生活実習所,東京都世田谷区弦巻2-1-5,二次避難所,-1,-1,0,0,0,0,0,1,1,,35.634518,139.655888,971
13112,駒沢中学校,東京都世田谷区駒沢2-39-25,避難所,-1,-1,0,0,0,0,0,1,1,,35.636295,139.655972,972
13112,駒留中学校,東京都世田谷区下馬4-18-1,避難所,-1,-1,0,0,0,0,0,1,1,,35.637435,139.678414,973
13112,駒澤大学・駒澤短期大学,東京都世田谷区駒沢1-23-1,避難所,-1,-1,0,0,0,0,0,1,1,,35.629407,139.658472,974
13112,経堂小学校,東京都世田谷区桜上水1-23-3,避難所,-1,-1,0,0,0,0,0,1,1,,35.65632,139.630945,975
13112,弦巻小学校,東京都世田谷区弦巻1-9-18,避難所,-1,-1,0,0,0,0,0,1,4,,35.6396839991,139.652722,976
13112,弦巻中学校,東京都世田谷区弦巻1-42-22,避難所,-1,-1,0,0,0,0,0,1,4,,35.6373229991,139.649389,977
13112,高齢者センター新樹苑,東京都世田谷区八幡山3-18-27,二次避難所,-1,-1,0,0,0,0,0,1,1,,35.664538,139.615691,978
13112,国士舘大学一帯,東京都世田谷区,広域避難場所,29000,32200,0,0,0,0,0,1,3,,35.648047,139.653364,979
13112,国士舘,東京都世田谷区世田谷4-28-1,避難所,-1,-1,0,0,0,0,0,1,1,,35.648599,139.653666,980
13112,桜丘小学校,東京都世田谷区桜丘1-19-17,避難所,-1,-1,0,0,0,0,0,1,1,,35.644821,139.630529,981
13112,桜丘中学校,東京都世田谷区桜丘2-1-39,避難所,-1,-1,0,0,0,0,0,1,1,,35.643655,139.62964,982
13112,桜小学校,東京都世田谷区世田谷2-4-15,避難所,-1,-1,0,0,0,0,0,1,1,,35.643044,139.645361,983
13112,桜上水福祉園,東京都世田谷区桜上水2-13-16,二次避難所,-1,-1,0,0,0,0,0,1,3,,35.6584851721,139.628751246,984
13112,桜町小学校,東京都世田谷区用賀1--5-1,避難所,-1,-1,0,0,0,0,0,1,1,,35.624074,139.641723,985
13112,桜木中学校,東京都世田谷区桜1-48-15,避難所,-1,-1,0,0,0,0,0,1,1,,35.64596,139.641806,986
13112,笹原小学校,東京都世田谷区桜丘5-19-1,避難所,-1,-1,0,0,0,0,0,1,1,,35.645321,139.621308,987
13112,三軒茶屋小学校,東京都世田谷区三軒茶屋2-42-1,避難所,-1,-1,0,0,0,0,0,1,1,,35.640462,139.663138,988
13112,三宿つくしんぼホーム,東京都世田谷区三宿2-30-7,二次避難所,-1,-1,0,0,0,0,0,1,3,,35.650856,139.672651,989
13112,三宿小学校,東京都世田谷区三宿1-12-6,避難所,-1,-1,0,0,0,0,0,1,1,,35.648128,139.676553,990
13112,三宿中学校,東京都世田谷区太子堂1-3-43,避難所,-1,-1,0,0,0,0,0,1,1,,35.645572,139.677775,991
13112,山崎小学校,東京都世田谷区梅丘3-9-1,避難所,-1,-1,0,0,0,0,0,1,1,,35.651405,139.655166,992
13112,山崎中学校,東京都世田谷区梅丘3-8-1,避難所,-1,-1,0,0,0,0,0,1,1,,35.65071,139.655055,993
13112,山野小学校,東京都世田谷区砧6-7-1,避難所,-1,-1,0,0,0,0,0,1,1,,35.643293,139.612864,994
13112,産業能率大学,東京都世田谷区等々力6-39-15,避難所,-1,-1,0,0,0,0,0,1,1,,35.613512,139.661652,995
13112,若林小学校,東京都世田谷区若林5-38-1,避難所,-1,-1,0,0,0,0,0,1,1,,35.650738,139.659027,996
13112,若林中学校,東京都世田谷区若林5-27-18,避難所,-1,-1,0,0,0,0,0,1,1,,35.649599,139.657388,997
13112,守山小学校,東京都世田谷区代田6-21-5,避難所,-1,-1,0,0,0,0,0,1,1,,35.665459,139.661637,998
13112,昭和女子大学一帯,東京都世田谷区,広域避難場所、避難所,54700,115000,0,0,0,0,0,1,1,,35.6440729991,139.676053,1000
13112,松蔭学園,東京都世田谷区北沢1-16-10,避難所,-1,-1,0,0,0,0,0,1,3,,35.663265,139.674969,1001
13112,松丘小学校,東京都世田谷区弦巻3-23-12,避難所,-1,-1,0,0,0,0,0,1,1,,35.638878,139.644389,1002
13112,松原小学校,東京都世田谷区松原5-43-26,避難所,-1,-1,0,0,0,0,0,1,1,,35.664209,139.650638,1003
13112,松沢小学校,東京都世田谷区赤堤4-44-22,避難所,-1,-1,0,0,0,0,0,1,1,,35.665597,139.639444,1004
13112,松沢中学校,東京都世田谷区桜上水4-5-2,避難所,-1,-1,0,0,0,0,0,1,1,,35.666541,139.634667,1005
13112,上祖師谷中学校,東京都世田谷区上祖師谷7-10-1,避難所,-1,-1,0,0,0,0,0,1,1,,35.660207,139.593226,1006
13112,上北沢小学校,東京都世田谷区上北沢4-22-29,避難所,-1,-1,0,0,0,0,0,1,1,,35.669568,139.621557,1007
13112,城山小学校,東京都世田谷区梅丘2-1-11,避難所,-1,-1,0,0,0,0,0,1,1,,35.648683,139.650722,1008
13112,深沢小学校,東京都世田谷区新町1-4-24,避難所,-1,-1,0,0,0,0,0,1,1,,35.627213,139.651584,1009
13112,深沢中学校,東京都世田谷区新町1-26-29,避難所,-1,-1,0,0,0,0,0,1,1,,35.626602,139.648334,1010
13112,世田谷学園,東京都世田谷区三宿1-16-31,避難所,-1,-1,0,0,0,0,0,1,1,,35.648628,139.675164,1011
13112,世田谷区立総合福祉センター,東京都世田谷区松原6-41-7,二次避難所,-1,-1,0,0,0,0,0,1,1,,35.656376,139.649777,1012
13112,世田谷公園一帯,東京都世田谷区,広域避難場所,54200,158200,0,0,0,0,0,1,3,,35.644006,139.681442,1013
13112,世田谷小学校,東京都世田谷区宮坂1-38-4,避難所,-1,-1,0,0,0,0,0,1,1,,35.649849,139.644778,1014
13112,世田谷泉高校,東京都世田谷区北烏山9-22-1,避難所,-1,-1,0,0,0,0,0,1,1,,35.6730669991,139.590587,1015
13112,世田谷福祉作業所,東京都世田谷区下馬2-31-34101,二次避難所,-1,-1,0,0,0,0,0,1,4,,35.6430327623,139.678989433,1016
13112,瀬田小学校,東京都世田谷区瀬田2-15-1,避難所,-1,-1,0,0,0,0,0,1,1,,35.618714,139.631641,1017
13112,瀬田中学校,東京都世田谷区瀬田2-17-1,避難所,-1,-1,0,0,0,0,0,1,1,,35.618547,139.632725,1018
13112,成城学園一帯,東京都世田谷区,広域避難場所,16100,35700,0,0,0,0,0,1,3,,35.6452804506,139.600688037,1019
13112,赤堤小学校,東京都世田谷区赤堤1-41-24,避難所,-1,-1,0,0,0,0,0,1,1,,35.656126,139.636806,1020
13112,千歳小学校,東京都世田谷区成城9-6-1,避難所,-1,-1,0,0,0,0,0,1,1,,35.651597,139.59792,1021
13112,千歳台小学校,東京都世田谷区千歳台4-24-1,避難所,-1,-1,0,0,0,0,0,1,1,,35.65893,139.61353,1022
13112,千歳台福祉園,東京都世田谷区千歳台3-31-9,二次避難所,-1,-1,0,0,0,0,0,1,1,,35.653598,139.611641,1023
13112,千歳中学校,東京都世田谷区千歳台6-15-1,避難所,-1,-1,0,0,0,0,0,1,1,,35.658208,139.60617,1024
13112,船橋小学校,東京都世田谷区船橋4-41-1,避難所,-1,-1,0,0,0,0,0,1,1,,35.653209,139.617141,1025
13112,船橋中学校,東京都世田谷区船橋4-20-1,避難所,-1,-1,0,0,0,0,0,1,1,,35.655348,139.618724,1026
13112,祖師谷公園・総合工科高校一帯,東京都世田谷区,広域避難場所,28100,60000,0,0,0,0,0,1,1,,35.6540069391,139.5989141,1027
13112,祖師谷小学校,東京都世田谷区祖師谷3-49-1,避難所,-1,-1,0,0,0,0,0,1,1,,35.645821,139.604892,1028
13112,多聞小学校,東京都世田谷区三宿2-26-11,避難所,-1,-1,0,0,0,0,0,1,1,,35.652683,139.673775,1029
13112,多摩川河川敷・二子橋一帯,東京都世田谷区,広域避難場所,43500,482100,0,0,0,0,0,1,3,,35.6149841356,139.616236373,1031
13112,太子堂小学校,東京都世田谷区太子堂5-7-4,避難所,-1,-1,0,0,0,0,0,1,1,,35.646405,139.666776,1032
13112,太子堂中学校,東京都世田谷区太子堂3-27-17,避難所,-1,-1,0,0,0,0,0,1,1,,35.650822,139.668859,1033
13112,代沢小学校,東京都世田谷区代沢5-1-10,避難所,-1,-1,0,0,0,0,0,1,1,,35.655043,139.667915,1034
13112,代田小学校,東京都世田谷区代田4-2-3,避難所,-1,-1,0,0,0,0,0,1,1,,35.658432,139.658554,1035
13112,第一生命グランド一帯,東京都世田谷区,広域避難場所,30100,74400,0,0,0,0,0,1,3,,35.6622172252,139.593639621,1036
13112,池尻小学校,東京都世田谷区池尻2-4-10,避難所,-1,-1,0,0,0,0,0,1,1,,35.645934,139.679497,1037
13112,池之上小学校,東京都世田谷区代沢2-42-9,避難所,-1,-1,0,0,0,0,0,1,1,,35.660015,139.67372,1038
13112,筑波大学附属駒場高等学校,東京都世田谷区池尻4-7-1,避難所,-1,-1,0,0,0,0,0,1,1,,35.65471,139.680997,1039
13112,筑波大学附属駒場中学校,東京都世田谷区池尻4-7-1,避難所,-1,-1,0,0,0,0,0,1,1,,35.6547293125,139.680970855,1040
13112,中丸小学校,東京都世田谷区野沢3-34-16,避難所,-1,-1,0,0,0,0,0,1,1,,35.632435,139.673248,1041
13112,中町小学校,東京都世田谷区中町4-23-1,避難所,-1,-1,0,0,0,0,0,1,1,,35.617381,139.642612,1042
13112,中里小学校,東京都世田谷区三軒茶屋1-4-1,避難所,-1,-1,0,0,0,0,0,1,1,,35.639656,139.673942,1043
13112,鳥山小学校,東京都世田谷区給田1-2-1,避難所,-1,-1,0,0,0,0,0,1,1,,35.6634569991,139.592837,1044
13112,鳥山福祉園,東京都世田谷区北烏山3-11-1,二次避難所,-1,-1,0,0,0,0,0,1,3,,35.6739086921,139.602426014,1045
13112,鳥山福祉作業所,東京都世田谷区北烏山1-29-15,二次避難所,-1,-1,0,0,0,0,0,1,4,,35.6754895889,139.608328335,1046
13112,鳥山北住宅・日本女子体育大学一帯,東京都世田谷区,広域避難場所,24800,50700,0,0,0,0,0,1,3,,35.6798681624,139.600244092,1047
13112,塚戸小学校,東京都世田谷区千歳台6-7-1,避難所,-1,-1,0,0,0,0,0,1,1,,35.656847,139.607281,1048
13112,都立芦花高等学校,東京都世田谷区粕谷3-8-1,避難所,-1,-1,0,0,0,0,0,1,1,,35.659708,139.605309,1049
13112,都立園芸高等学校,東京都世田谷区深沢5-38-1,広域避難場所、避難所,18900,37700,0,0,0,0,0,1,1,,35.618797,139.648251,1051
13112,都立久我山盲学校,東京都世田谷区北鳥山4-37-1,二次避難所,-1,-1,0,0,0,0,0,1,1,,35.681677,139.596308,1052
13112,都立光明特別支援学校,東京都世田谷区松原6-38-27,二次避難所,-1,-1,0,0,0,0,0,1,1,,35.657543,139.651416,1053
13112,都立桜町高等学校,東京都世田谷区用賀2-4-1,避難所,-1,-1,0,0,0,0,0,1,1,,35.626379,139.640196,1054
13112,都立松原高等学校,東京都世田谷区桜上水4-3-5,避難所,-1,-1,0,0,0,0,0,1,1,,35.66493,139.635278,1055
13112,都立深沢高等学校,東京都世田谷区深沢7-3-1,避難所,-1,-1,0,0,0,0,0,1,1,,35.623324,139.648001,1056
13112,都立青烏特別支援学校,東京都世田谷区池尻1-1-4,二次避難所,-1,-1,0,0,0,0,0,1,1,,35.6421009991,139.684108,1057
13112,都立千歳丘高等学校,東京都世田谷区船橋3-18-1,避難所,-1,-1,0,0,0,0,0,1,1,,35.652237,139.624807,1058
13112,都立総合工科高等学校,東京都世田谷区成城9-25-1,避難所,-1,-1,0,0,0,0,0,1,1,,35.651653,139.595615,1059
13112,東横学園女子短期大学,東京都世田谷区等々力8-9-18,避難所,-1,-1,0,0,0,0,0,1,1,,35.61377,139.650806,1060
13112,東京学芸大学附属高等学校,東京都世田谷区下馬4-1-5,避難所,-1,-1,0,0,0,0,0,1,1,,35.634713,139.67797,1061
13112,東京学芸大学附属世田谷小・中学校一帯,東京都世田谷区,広域避難場所,13400,24700,0,0,0,0,0,1,3,,35.620387,139.658246,1062
13112,東京学芸大学附属世田谷小学校,東京都世田谷区深沢4-10-1,避難所,-1,-1,0,0,0,0,0,1,1,,35.61963,139.657805,1063
13112,東京学芸大学附属世田谷中学校,東京都世田谷区深沢4-3-1,避難所,-1,-1,0,0,0,0,0,1,1,,35.620436,139.659389,1064
13112,東玉川小学校,東京都世田谷区奥沢1-1-1,避難所,-1,-1,0,0,0,0,0,1,1,,35.598578,139.680388,1065
13112,東深沢小学校,東京都世田谷区深沢3-7-1,避難所,-1,-1,0,0,0,0,0,1,1,,35.618075,139.658305,1066
13112,東深沢中学校,東京都世田谷区深沢4-18-28,避難所,-1,-1,0,0,0,0,0,1,1,,35.619047,139.654389,1067
13112,東大原小学校,東京都世田谷区大原1-4-6,避難所,-1,-1,0,0,0,0,0,1,1,,35.666764,139.664637,1068
13112,等々力小学校,東京都世田谷区等-力7-26-1,避難所,-1,-1,0,0,0,0,0,1,1,,35.616464,139.653695,1069
13112,特別養護老人ホームきたざわ苑,東京都世田谷区北沢5-24-18,二次避難所,-1,-1,0,0,0,0,0,1,1,,35.670042,139.67133,1070
13112,特別養護老人ホームさつき荘,東京都世田谷区等々力5-19-10,二次避難所,-1,-1,0,0,0,0,0,1,4,,35.6099395896,139.65461184,1071
13112,特別養護老人ホームフォーライフ桃郷,東京都世田谷区北烏山7-8-11,二次避難所,-1,-1,0,0,0,0,0,1,1,,35.677317,139.592782,1072
13112,特別養護老人ホームフレンズホーム,東京都世田谷区下馬2-21-11,二次避難所,-1,-1,0,0,0,0,0,1,1,,35.640335,139.676017,1073
13112,特別養護老人ホーム芦花ホーム,東京都世田谷区粕谷2-23-1,二次避難所,-1,-1,0,0,0,0,0,1,1,,35.666224,139.610002,1074
13112,特別養護老人ホーム喜多見ホーム,東京都世田谷区喜多見7-20-26,二次避難所,-1,-1,0,0,0,0,0,1,1,,35.632361,139.595922,1075
13112,特別養護老人ホーム砧ホーム,東京都世田谷区砧3-9-11,二次避難所,-1,-1,0,0,0,0,0,1,1,,35.635644,139.613945,1076
13112,特別養護老人ホーム久我山園,東京都世田谷区北烏山2-14-14,二次避難所,-1,-1,0,0,0,0,0,1,4,,35.6813015395,139.598299718,1077
13112,特別養護老人ホーム上北沢ホーム,東京都世田谷区上北沢1-28-17,二次避難所,-1,-1,0,0,0,0,0,1,1,,35.663711,139.626562,1078
13112,特別養護老人ホーム成城アルテンハイム,東京都世田谷区成城6-13-17,二次避難所,-1,-1,0,0,0,0,0,1,1,,35.641904,139.600004,1079
13112,特別養護老人ホーム千歳敬心苑,東京都世田谷区給田5-9-5,二次避難所,-1,-1,0,0,0,0,0,1,1,,35.672122,139.58581,1080
13112,特別養護老人ホーム第２有隣ホーム,東京都世田谷区船橋2-15-38,二次避難所,-1,-1,0,0,0,0,0,1,1,,35.651164,139.618547,1081
13112,特別養護老人ホーム東京敬寿園,東京都世田谷区上祖師谷7-1-1,二次避難所,-1,-1,0,0,0,0,0,1,4,,35.6580669839,139.594702248,1082
13112,特別養護老人ホーム等々力の家,東京都世田谷区等-力8-26-16,二次避難所,-1,-1,0,0,0,0,0,1,1,,35.617514,139.651907,1083
13112,特別養護老人ホーム等々力共愛ホームズ,東京都世田谷区等-力1-24-11,二次避難所,-1,-1,0,0,0,0,0,1,1,,35.604017,139.648732,1084
13112,特別養護老人ホーム博水の郷,東京都世田谷区鎌田3-16-6,二次避難所,-1,-1,0,0,0,0,0,1,1,,35.619686,139.615921,1085
13112,特別養護老人ホーム有隣ホーム,東京都世田谷区船橋2-15-38,二次避難所,-1,-1,0,0,0,0,0,1,1,,35.651477,139.618481,1086
13112,二階堂高等学校,東京都世田谷区松原2-17-22,避難所,-1,-1,0,0,0,0,0,1,1,,35.666347,139.648221,1087
13112,二子玉川小学校,東京都世田谷区玉川4-6-1,避難所,-1,-1,0,0,0,0,0,1,1,,35.616436,139.626253,1088
13112,日本学園高等学校,東京都世田谷区松原2-7-34,避難所,-1,-1,0,0,0,0,0,1,1,,35.665097,139.648833,1089
13112,日本女子体育大学,東京都世田谷区北烏山8-19-1,避難所,-1,-1,0,0,0,0,0,1,1,,35.677205,139.59017,1090
13112,日本体育大学・女子短期大学部,東京都世田谷区深沢7-1-1,避難所,-1,-1,0,0,0,0,0,1,1,,35.621713,139.648917,1091
13112,日本大学商学部,東京都世田谷区砧5-2-1,避難所,-1,-1,0,0,0,0,0,1,3,,35.6356581721,139.609002655,1092
13112,日本大学文理学一帯,東京都世田谷区,広域避難場所,45600,92900,0,0,0,0,0,1,3,,35.6630870067,139.635208258,1093
13112,日本大学文理学部,東京都世田谷区桜上水3-25-40,避難所,-1,-1,0,0,0,0,0,1,1,,35.662431,139.633639,1094
13112,日本大学櫻丘高等学校,東京都世田谷区桜上水3-24-22,避難所,-1,-1,0,0,0,0,0,1,1,,35.661875,139.632529,1095
13112,馬事公苑・東京農業大学一帯,東京都世田谷区,広域避難場所,102500,263900,0,0,0,0,0,1,3,,35.6385930694,139.632783392,1096
13112,梅丘中学校,東京都世田谷区松原6-5-11,避難所,-1,-1,0,0,0,0,0,1,1,,35.658876,139.652221,1097
13112,八幡山小学校,東京都世田谷区八幡山1-14-1,避難所,-1,-1,0,0,0,0,0,1,1,,35.66193,139.621446,1098
13112,八幡小学校,東京都世田谷区玉川田園調布2-17-15,避難所,-1,-1,0,0,0,0,0,1,1,,35.602799,139.666889,1099
13112,八幡中学校,東京都世田谷区等々力6-4-1,避難所,-1,-1,0,0,0,0,0,1,1,,35.610965,139.661055,1100
13112,尾山台小学校,東京都世田谷区尾山台3-11-1,避難所,-1,-1,0,0,0,0,0,1,1,,35.60466,139.654195,1101
13112,尾山台中学校,東京都世田谷区尾山台3-27-23,避難所,-1,-1,0,0,0,0,0,1,1,,35.605771,139.656167,1102
13112,富士中学校,東京都世田谷区代沢1-23-17,避難所,-1,-1,0,0,0,0,0,1,1,,35.657016,139.677442,1103
13112,武蔵丘小学校,東京都世田谷区北烏山1-47-11,避難所,-1,-1,0,0,0,0,0,1,1,,35.677289,139.605613,1104
13112,武蔵工業大学,東京都世田谷区玉堤1-28-1,避難所,-1,-1,0,0,0,0,0,1,1,,35.597661,139.650446,1105
13112,北沢小学校,東京都世田谷区北沢4-32-20,避難所,-1,-1,0,0,0,0,0,1,1,,35.668098,139.672247,1106
13112,北沢中学校,東京都世田谷区北沢5-12-3,避難所,-1,-1,0,0,0,0,0,1,1,,35.669347,139.667081,1107
13112,明正小学校,東京都世田谷区成城3-3-1,避難所,-1,-1,0,0,0,0,0,1,1,,35.635433,139.599227,1108
13112,明大和泉校舎一帯,東京都世田谷区,広域避難場所、震災救援所補助、代替施設,58500,830000,0,0,0,0,0,1,1,,35.6709731791,139.6483309,1109
13112,用賀小学校,東京都世田谷区上用賀6-14-1,避難所,-1,-1,0,0,0,0,0,1,1,,35.636267,139.626447,1110
13112,用賀中学校,東京都世田谷区上用賀5-15-1,避難所,-1,-1,0,0,0,0,0,1,1,,35.630518,139.627252,1111
13112,養護老人ホーム友愛ホーム,東京都世田谷区砧3-9-11,二次避難所,-1,-1,0,0,0,0,0,1,4,,35.6355627633,139.613049225,1112
13112,両齢者在宅サービスセンターデイ・ホーム等々力,東京都世田谷区等々力5-19-11,二次避難所,-1,-1,0,0,0,0,0,1,3,,35.610131,139.654417,1113
13112,緑丘中学校,東京都世田谷区桜上水3-19-12,避難所,-1,-1,0,0,0,0,0,1,1,,35.661514,139.631334,1114
13113,ケアコミュニティ・原宿の丘（旧原宿中学校）,東京都渋谷区神宮前3-12-8,避難所,-1,-1,0,0,0,0,0,1,1,,35.670071,139.711188,1115
13113,ケアコミュニティ・美竹の丘（旧渋谷小学校）,東京都渋谷区渋谷1-18-21,避難所,-1,-1,0,0,0,0,0,1,1,,35.6618399991,139.704941,1116
13113,猿楽小学校,東京都渋谷区猿楽町12-35,避難所,-1,-1,0,0,0,0,0,1,1,,35.651156,139.701829,1117
13113,加計塚小学校,東京都渋谷区恵比寿4-21-10,避難所,-1,-1,0,0,0,0,0,1,1,,35.644129,139.714356,1118
13113,駒場東大・駒場野公園一帯,東京都渋谷区,広域避難場所、避難場所,102300,251000,0,0,0,0,0,1,3,,35.6609057126,139.682446782,1119
13113,恵比寿ガーデンプレイス,東京都渋谷区恵比寿4丁目20番、目黒区三田1丁目4番、13番,避難場所,42900,56300,0,0,0,0,0,1,3,,35.6425440099,139.713781417,1120
13113,原宿外苑中学校,東京都渋谷区神宮前1-24-6,避難所,-1,-1,0,0,0,0,0,1,1,,35.67357,139.705633,1121
13113,広尾小学校,東京都渋谷区東3-3-3,避難所,-1,-1,0,0,0,0,0,1,1,,35.651711,139.712022,1122
13113,広尾中学校,東京都渋谷区東4-13-25,避難所,-1,-1,0,0,0,0,0,1,1,,35.654239,139.712411,1123
13113,笹塚小学校,東京都渋谷区笹塚2-8-1,避難所,-1,-1,0,0,0,0,0,1,1,,35.676208,139.669136,1124
13113,笹塚中学校,東京都渋谷区笹塚3-10-1,避難所,-1,-1,0,0,0,0,0,1,1,,35.677791,139.66858,1125
13113,山谷小学校,東京都渋谷区代-木3-47-1,避難所,-1,-1,0,0,0,0,0,1,1,,35.681319,139.6948,1126
13113,渋谷区スポーツセンター,東京都渋谷区西原1-40-18,避難所,-1,-1,0,0,0,0,0,1,1,,35.675925,139.680633,1127
13113,松濤中学校,東京都渋谷区松濤1-20-4,避難所,-1,-1,0,0,0,0,0,1,1,,35.661137,139.691012,1128
13113,上原小学校,東京都渋谷区上原3-13-20,避難所,-1,-1,0,0,0,0,0,1,1,,35.66632,139.679052,1129
13113,上原中学校,東京都渋谷区上原3-41-2,避難所,-1,-1,0,0,0,0,0,1,1,,35.667042,139.678025,1130
13113,常磐松小学校,東京都渋谷区東1-7-10,避難所,-1,-1,0,0,0,0,0,1,1,,35.655683,139.710328,1131
13113,新宿御苑,東京都渋谷区,避難場所,184300,399500,0,0,0,0,0,1,3,,35.685518,139.709165,1132
13113,新宿中央公園・高層ビル群一帯,東京都渋谷区,避難場所,72700,185200,0,0,0,0,0,1,3,,35.689666,139.689875,1133
13113,神宮前小学校,東京都渋谷区神宮前4-20-12,避難所,-1,-1,0,0,0,0,0,1,1,,35.668015,139.707938,1134
13113,神南小学校,東京都渋谷区宇田川町5-1,避難所,-1,-1,0,0,0,0,0,1,1,,35.663265,139.697495,1135
13113,聖心女子大学一帯,東京都渋谷区,避難場所,21000,68100,0,0,0,0,0,1,3,,35.6520407679,139.719894,1136
13113,西原小学校,東京都渋谷区西原2-22-1,避難所,-1,-1,0,0,0,0,0,1,1,,35.674097,139.678802,1137
13113,青山学院・実践女子学園一帯,東京都渋谷区,避難場所,39000,77800,0,0,0,0,0,1,3,,35.6601915437,139.710544986,1138
13113,千駄谷小学校,東京都渋谷区千駄ヶ谷2-4-1,避難所,-1,-1,0,0,0,0,0,1,1,,35.675375,139.707799,1139
13113,代々木小学校,東京都渋谷区代-木2-35-1,避難所,-1,-1,0,0,0,0,0,1,1,,35.684513,139.697939,1140
13113,代々木中学校,東京都渋谷区西原1-46-1,避難所,-1,-1,0,0,0,0,0,1,1,,35.674569,139.683579,1141
13113,中幡小学校,東京都渋谷区幡ヶ谷3-49-1,避難所,-1,-1,0,0,0,0,0,1,1,,35.680707,139.673358,1142
13113,中目黒公園一帯,東京都渋谷区,避難場所,100100,128800,0,0,0,0,0,1,1,,35.64097,139.7048,1143
13113,長谷戸小学校,東京都渋谷区恵比寿西1-23-1,避難所,-1,-1,0,0,0,0,0,1,1,,35.647184,139.705995,1144
13113,幡代小学校,東京都渋谷区初台1-32-12,避難所,-1,-1,0,0,0,0,0,1,1,,35.679097,139.684162,1145
13113,鉢山中学校,東京都渋谷区鶯谷町9-1,避難所,-1,-1,0,0,0,0,0,1,1,,35.653152,139.703121,1146
13113,鳩森小学校,東京都渋谷区千駄ヶ谷5-9-1,避難所,-1,-1,0,0,0,0,0,1,1,,35.682625,139.705994,1147
13113,富谷小学校,東京都渋谷区上原1-46-4,避難所,-1,-1,0,0,0,0,0,1,1,,35.669181,139.686829,1148
13113,本町小学校,東京都渋谷区本町4-39-1,避難所,-1,-1,0,0,0,0,0,1,1,,35.685374,139.679635,1149
13113,本町中学校,東京都渋谷区本町4-3-1,避難所,-1,-1,0,0,0,0,0,1,1,,35.6860119999,139.681968,1150
13113,本町東小学校,東京都渋谷区本町3-46-1,避難所,-1,-1,0,0,0,0,0,1,1,,35.687651,139.682162,1151
13113,明治神宮・代々木公園一帯,東京都渋谷区,避難場所,213400,827200,0,0,0,0,0,1,3,,35.6729910718,139.697371392,1152
13113,明治神宮外苑地区,東京都渋谷区,避難場所,103000,414300,0,0,0,0,0,1,3,,35.677806468,139.71702382,1153
13113,臨川小学校,東京都渋谷区広尾1-9-17,避難所,-1,-1,0,0,0,0,0,1,1,,35.649267,139.716577,1154
13114,旧沼袋小学校,東京都中野区沼袋3-13-2,避難所,2800,-1,0,0,0,0,0,1,1,,35.717536,139.659691,1155
13114,旧第六中学校,東京都中野区野方3-6-17,避難所,3100,-1,0,0,0,0,0,1,1,,35.717703,139.656885,1156
13114,旧中野富士見中学校,東京都中野区野方3-6-17,避難所,3100,-1,0,0,0,0,0,1,1,,35.687845,139.667941,1157
13114,旧東中野小学校,東京都中野区東中野5-27-8,避難所,2900,-1,0,0,0,0,0,1,1,,35.710315,139.690549,1158
13114,旧桃丘小学校,東京都中野区中野3-40-23,避難所,4400,-1,0,0,0,0,0,1,1,,35.70526,139.663274,1159
13114,啓明小学校,東京都中野区大和町1-18-1,避難所,3500,-1,0,0,0,0,0,1,1,,35.713425,139.65258,1160
13114,向台小学校,東京都中野区弥生町1-25-1,避難所,3200,-1,0,0,0,0,0,1,1,,35.692095,139.679662,1161
13114,江原小学校,東京都中野区江原町1-39-1,避難所,3800,-1,0,0,0,0,0,1,1,,35.729591,139.673467,1162
13114,江古田小学校,東京都中野区江古田2-13-28,避難所,3800,-1,0,0,0,0,0,1,1,,35.726035,139.666579,1163
13114,鷺宮小学校,東京都中野区鷺宮3-31-4,避難所,2900,-1,0,0,0,0,0,1,1,,35.725007,139.639581,1164
13114,鷺宮体育館,東京都中野区白鷺3-1-13,避難所,2900,-1,0,0,0,0,0,1,1,,35.722513,139.636418,1165
13114,若宮小学校,東京都中野区若宮3-53-16,避難所,3300,-1,0,0,0,0,0,1,1,,35.719174,139.641053,1166
13114,上高田小学校,東京都中野区上高田5-35-3,避難所,3700,-1,0,0,0,0,0,1,1,,35.717064,139.674467,1167
13114,上鷺宮小学校,東京都中野区上鷺宮1-24-36,避難所,3400,-1,0,0,0,0,0,1,1,,35.731506,139.635137,1168
13114,新井小学校,東京都中野区新井4-19-1,避難所,3500,-1,0,0,0,0,0,1,1,,35.71737,139.668218,1169
13114,新山小学校,東京都中野区南台4-4-1,避難所,3200,-1,0,0,0,0,0,1,1,,35.681735,139.668164,1170
13114,新渡戸文化学園,東京都中野区本町6-38-1,避難所,9100,-1,0,0,0,0,0,1,3,,35.6963439991,139.661497,1171
13114,西中野小学校,東京都中野区白鷺3-9-2,避難所,3000,-1,0,0,0,0,0,1,1,,35.720785,139.631221,1172
13114,多田小学校,東京都中野区南台3-44-9,避難所,3700,-1,0,0,0,0,0,1,1,,35.684207,139.664303,1173
13114,大妻中野中・高等学校,東京都中野区上高田2-3-7,避難所,2500,-1,0,0,0,0,0,1,1,,35.710509,139.671634,1174
13114,大和小学校,東京都中野区大和町4-26-5,避難所,3800,-1,0,0,0,0,0,1,1,,35.71448,139.645109,1175
13114,第九中学校,東京都中野区中野1-57-12,避難所,3500,-1,0,0,0,0,0,1,1,,35.703677,139.672107,1176
13114,第五中学校,東京都中野区上高田4-28-1,避難所,4500,-1,0,0,0,0,0,1,1,,35.715342,139.678439,1177
13114,第三中学校,東京都中野区東中野5-12-1,避難所,4500,-1,0,0,0,0,0,1,1,,35.708149,139.688772,1178
13114,第四中学校,東京都中野区若宮1-1-18,避難所,4200,-1,0,0,0,0,0,1,1,,35.716175,139.649858,1179
13114,第七中学校,東京都中野区江古田2-9-11,避難所,4400,-1,0,0,0,0,0,1,1,,35.724674,139.668051,1180
13114,第十中学校,東京都中野区中央1-41-1,避難所,4000,-1,0,0,0,0,0,1,1,,35.698622,139.683801,1181
13114,第二中学校,東京都中野区本町5-25-1,避難所,6400,-1,0,0,0,0,0,1,1,,35.69265,139.671135,1182
13114,第八中学校,東京都中野区鷺宮4-7-3,避難所,3600,-1,0,0,0,0,0,1,1,,35.724118,139.63597,1183
13114,谷戸小学校,東京都中野区中野1-26-1,避難所,2900,-1,0,0,0,0,0,1,1,,35.702455,139.677051,1184
13114,中央中学校,東京都中野区中野4-12-7,避難所,3700,-1,0,0,0,0,0,1,1,,35.709676,139.661358,1185
13114,中部すこやか福祉センター,東京都中野区中央3-19-1,避難所,2800,-1,0,0,0,0,0,1,3,,35.700316,139.674218,1186
13114,中野神明小学校,東京都中野区弥生町4-27-29,避難所,3900,-1,0,0,0,0,0,1,1,,35.687373,139.669997,1187
13114,中野本郷小学校,東京都中野区本町4-27-3,避難所,3200,-1,0,0,0,0,0,1,1,,35.695122,139.670357,1188
13114,都立鷺宮高等学校,東京都中野区若宮3-46-8,避難所,7400,-1,0,0,0,0,0,1,1,,35.720091,139.643775,1189
13114,塔山小学校,東京都中野区中央1-49-1,避難所,3600,-1,0,0,0,0,0,1,1,,35.700816,139.683606,1190
13114,東京大学教育学部附属中等教育学校,東京都中野区南台1-15-1,避難所,6600,-1,0,0,0,0,0,1,1,,35.685743,139.673825,1191
13114,桃園小学校,東京都中野区本町3-16-1,避難所,3800,-1,0,0,0,0,0,1,1,,35.696011,139.677384,1192
13114,桃園第二小学校,東京都中野区中野6-13-1,避難所,3500,-1,0,0,0,0,0,1,1,,35.707676,139.675967,1193
13114,桃花小学校,東京都中野区中央5-43-1,避難所,4100,-1,0,0,0,0,0,1,3,,35.700455,139.665802,1194
13114,南中野中学校,東京都中野区南台5-22-17,避難所,3700,-1,0,0,0,0,0,1,3,,35.68254,139.662442,1195
13114,白桜小学校,東京都中野区上高田1-2-28,避難所,3200,-1,0,0,0,0,0,1,3,,35.7100029991,139.679146,1196
13114,武蔵台小学校,東京都中野区上鷺宮5-1-1,避難所,3300,-1,0,0,0,0,0,1,1,,35.72809,139.629748,1197
13114,平和の森小学校,東京都中野区新井3-29-1,避難所,3400,-1,0,0,0,0,0,1,3,,35.7147029991,139.659719,1198
13114,宝仙学園,東京都中野区中央2-28-3,避難所,10800,-1,0,0,0,0,0,1,1,,35.699039,139.680579,1199
13114,北原小学校,東京都中野区野方6-30-6,避難所,2600,-1,0,0,0,0,0,1,1,,35.721063,139.651441,1200
13114,北中野中学校,東京都中野区上鷺宮5-7-1,避難所,4000,-1,0,0,0,0,0,1,1,,35.72834,139.628665,1201
13114,明治大学付属中野中・高等学校,東京都中野区東中野3-3-4,避難所,9100,-1,0,0,0,0,0,1,1,,35.706843,139.679578,1202
13114,緑野小学校,東京都中野区丸山1-17-1,避難所,3500,-1,0,0,0,0,0,1,3,,35.7250629991,139.657579,1203
13114,緑野中学校,東京都中野区丸山1-1-19,避難所,3700,-1,0,0,0,0,0,1,3,,35.723785,139.657357,1204
