P20_001,名称,所在地,種別,P20_005,P20_006,P20_007,P20_008,P20_009,P20_010,P20_011,P20_012,レベル,備考,緯度,経度,NO
13104,愛日小学校,東京都新宿区北町26,避難所、一時避難所,-1,-1,0,0,0,0,0,1,1,,35.699734,139.734046,145
13104,花園小学校,東京都新宿区新宿1-22-1,一時避難所、避難所,-1,-1,0,0,0,0,0,1,1,,35.689652,139.713548,147
13104,学習院女子大学、学習院女子中・高等科,東京都新宿区戸山3-20-1,一時避難所,-1,-1,0,0,0,0,0,1,1,,35.706879,139.713567,149
13104,牛込第一中学校,東京都新宿区北山伏町4-1,一時避難所、避難所,-1,-1,0,0,0,0,0,1,1,,35.700345,139.730435,150
13104,牛込第三中学校,東京都新宿区市谷加賀町1-3-1,一時避難所、避難所,-1,-1,0,0,0,0,0,1,1,,35.697679,139.731685,151
13104,牛込第二中学校,東京都新宿区喜久井町20,一時避難所、避難所,-1,-1,0,0,0,0,0,1,1,,35.704484,139.723102,152
13104,牛込仲之小学校,東京都新宿区市谷仲之町4-33,一時避難所、避難所,-1,-1,0,0,0,0,0,1,1,,35.695846,139.723686,153
13104,戸山小学校,東京都新宿区百人町2-1-38,一時避難所,-1,-1,0,0,0,0,0,1,1,,35.704261,139.702021,156
13104,戸塚第一小学校,東京都新宿区西早稲田3-10-12,一時避難所、避難所,-1,-1,0,0,0,0,0,1,1,,35.711219,139.714689,158
13104,戸塚第三小学校,東京都新宿区高田馬場3-18-21,一時避難所,-1,-1,0,0,0,0,0,1,1,,35.714843,139.697604,160
13104,戸塚第二小学校,東京都新宿区高田馬場1-25-21,避難所、一時避難所,-1,-1,0,0,0,0,0,1,1,,35.712593,139.705881,161
13104,江戸川小学校,東京都新宿区水道町1-28,一時避難所,-1,-1,0,0,0,0,0,1,1,,35.707095,139.736351,163
13104,四谷ひろば,東京都新宿区四谷4-20,一時避難所、避難所,-1,-1,0,0,0,0,0,1,3,,35.6895193093,139.717845058,166
13104,四谷小学校,東京都新宿区四谷2-6,一時避難所、避難所,-1,-1,0,0,0,0,0,1,3,,35.68665,139.724953,167
13104,四谷第六小学校,東京都新宿区大京町30,一時避難所、避難所,-1,-1,0,0,0,0,0,1,1,,35.681653,139.71566,168
13104,四谷中学校,東京都新宿区四谷1-12,避難所、一時避難所,-1,-1,0,0,0,0,0,1,1,,35.684486,139.728519,170
13104,市谷小学校,東京都新宿区市谷山伏町1-3,一時避難所,-1,-1,0,0,0,0,0,1,1,,35.699818,139.728741,172
13104,新宿西戸山中学校,東京都新宿区百人町4-3-1,一時避難所、避難所,-1,-1,0,0,0,0,0,1,1,,35.7085379991,139.700799,175
13104,新宿中学校,東京都新宿区新宿6-15-22,一時避難所、避難所,-1,-1,0,0,0,0,0,1,4,,35.6957382053,139.710696249,176
13104,成城学校,東京都新宿区原町3-87,一時避難所,-1,-1,0,0,0,0,0,1,1,,35.6985949991,139.723103,178
13104,西戸山小学校,東京都新宿区百人町4-2-1,一時避難所、避難所,-1,-1,0,0,0,0,0,1,1,,35.708094,139.699604,179
13104,西新宿小学校,東京都新宿区西新宿4-35-5,避難所、一時避難所,-1,-1,0,0,0,0,0,1,1,,35.686374,139.687662,182
13104,西新宿中学校,東京都新宿区西新宿8-2-44,一時避難所、避難所,-1,-1,0,0,0,0,0,1,1,,35.695942,139.694819,183
13104,西早稲田中学校,東京都新宿区戸山3-20-2,一時避難所、避難所,-1,-1,0,0,0,0,0,1,1,,35.707703,139.709758,184
13104,早稲田小学校,東京都新宿区早稲田南町25,一時避難所,-1,-1,0,0,0,0,0,1,1,,35.703956,139.723436,186
13104,早稲田大学（戸山キャンパス）,東京都新宿区戸山1-24-1,避難所、一時避難所,-1,-1,0,0,0,0,0,1,1,,35.70523,139.718156,187
13104,早稲田大学（早稲田キャンパス）,東京都新宿区西早稲田1-6-1,避難所、一時避難所,-1,-1,0,0,0,0,0,1,1,,35.709761,139.718741,188
13104,大久保小学校,東京都新宿区大久保1-1-21,避難所、一時避難所,-1,-1,0,0,0,0,0,1,1,,35.69965,139.70591,192
13104,津久戸小学校,東京都新宿区津久戸町2-2,一時避難所、避難所,-1,-1,0,0,0,0,0,1,1,,35.702957,139.742017,199
13104,鶴巻小学校,東京都新宿区早稲田鶴巻町140,一時避難所,-1,-1,0,0,0,0,0,1,1,,35.708594,139.725019,201
13104,天神小学校,東京都新宿区新宿6-14-2,一時避難所,-1,-1,0,0,0,0,0,1,1,,35.695623,139.710021,203
13104,都立戸山高等学校,東京都新宿区戸山3-19-1,一時避難所,-1,-1,0,0,0,0,0,1,1,,35.707122,139.710853,204
13104,都立新宿高等学校,東京都新宿区内藤町8,一時避難所,-1,-1,0,0,0,0,0,1,1,,35.688478,139.705121,205
13104,都立新宿山吹高等学校,東京都新宿区山吹町81,一時避難所,-1,-1,0,0,0,0,0,1,1,,35.706984,139.728352,206
13104,東京医科大学,東京都新宿区新宿6-1-1,一時避難所,-1,-1,0,0,0,0,0,1,1,,35.693679,139.712048,207
13104,東京富士大学（高田記念館）,東京都新宿区下落合1-7-7,一時避難所,-1,-1,0,0,0,0,0,1,3,,35.715332,139.700001,208
13104,東戸山小学校,東京都新宿区戸山2-34-2,一時避難所、避難所,-1,-1,0,0,0,0,0,1,1,,35.702539,139.71152,209
13104,柏木小学校,東京都新宿区北新宿2-11-1,一時避難所,-1,-1,0,0,0,0,0,1,1,,35.700511,139.6893,211
13104,富久小学校,東京都新宿区富久町7-24,一時避難所、避難所,-1,-1,0,0,0,0,0,1,1,,35.6923353932,139.716496335,212
13104,余丁町小学校,東京都新宿区若松町13-1,一時避難所、避難所,-1,-1,0,0,0,0,0,1,1,,35.699241,139.715813,218
13104,淀橋第四小学校,東京都新宿区北新宿3-17-1,一時避難所、避難所,-1,-1,0,0,0,0,0,1,1,,35.704094,139.691105,220
13104,落合第一小学校,東京都新宿区中落合2-13-27,一時避難所、避難所,-1,-1,0,0,0,0,0,1,1,,35.719537,139.691521,222
13104,落合第五小学校,東京都新宿区上落合3-1-6,一時避難所、避難所,-1,-1,0,0,0,0,0,1,1,,35.714648,139.685744,223
13104,落合第三小学校,東京都新宿区西落合1-12-20,一時避難所,-1,-1,0,0,0,0,0,1,1,,35.720758,139.68255,225
13104,落合第四小学校,東京都新宿区下落合2-9-34,一時避難所,-1,-1,0,0,0,0,0,1,1,,35.7183287492,139.700157217,227
13104,落合第二小学校,東京都新宿区上落合2-10-23,避難所、一時避難所,-1,-1,0,0,0,0,0,1,1,,35.712954,139.689188,229
13104,落合第二中学校,東京都新宿区西落合1-6-5,一時避難所、避難所,-1,-1,0,0,0,0,0,1,1,,35.721453,139.684438,230
13104,落合第六小学校,東京都新宿区西落合4-11-21,一時避難所、避難所,-1,-1,0,0,0,0,0,1,1,,35.727285,139.678522,231
13104,落合中学校,東京都新宿区下落合2-24-6,一時避難所、避難所,-1,-1,0,0,0,0,0,1,1,,35.718787,139.700243,232
13114,旧沼袋小学校,東京都中野区沼袋3-13-2,避難所,2800,-1,0,0,0,0,0,1,1,,35.717536,139.659691,1155
13114,旧第六中学校,東京都中野区野方3-6-17,避難所,3100,-1,0,0,0,0,0,1,1,,35.717703,139.656885,1156
13114,旧中野富士見中学校,東京都中野区野方3-6-17,避難所,3100,-1,0,0,0,0,0,1,1,,35.687845,139.667941,1157
13114,旧東中野小学校,東京都中野区東中野5-27-8,避難所,2900,-1,0,0,0,0,0,1,1,,35.710315,139.690549,1158
13114,旧桃丘小学校,東京都中野区中野3-40-23,避難所,4400,-1,0,0,0,0,0,1,1,,35.70526,139.663274,1159
13114,啓明小学校,東京都中野区大和町1-18-1,避難所,3500,-1,0,0,0,0,0,1,1,,35.713425,139.65258,1160
13114,向台小学校,東京都中野区弥生町1-25-1,避難所,3200,-1,0,0,0,0,0,1,1,,35.692095,139.679662,1161
13114,江原小学校,東京都中野区江原町1-39-1,避難所,3800,-1,0,0,0,0,0,1,1,,35.729591,139.673467,1162
13114,江古田小学校,東京都中野区江古田2-13-28,避難所,3800,-1,0,0,0,0,0,1,1,,35.726035,139.666579,1163
13114,鷺宮小学校,東京都中野区鷺宮3-31-4,避難所,2900,-1,0,0,0,0,0,1,1,,35.725007,139.639581,1164
13114,鷺宮体育館,東京都中野区白鷺3-1-13,避難所,2900,-1,0,0,0,0,0,1,1,,35.722513,139.636418,1165
13114,若宮小学校,東京都中野区若宮3-53-16,避難所,3300,-1,0,0,0,0,0,1,1,,35.719174,139.641053,1166
13114,上高田小学校,東京都中野区上高田5-35-3,避難所,3700,-1,0,0,0,0,0,1,1,,35.717064,139.674467,1167
13114,上鷺宮小学校,東京都中野区上鷺宮1-24-36,避難所,3400,-1,0,0,0,0,0,1,1,,35.731506,139.635137,1168
13114,新井小学校,東京都中野区新井4-19-1,避難所,3500,-1,0,0,0,0,0,1,1,,35.71737,139.668218,1169
13114,新山小学校,東京都中野区南台4-4-1,避難所,3200,-1,0,0,0,0,0,1,1,,35.681735,139.668164,1170
13114,新渡戸文化学園,東京都中野区本町6-38-1,避難所,9100,-1,0,0,0,0,0,1,3,,35.6963439991,139.661497,1171
13114,西中野小学校,東京都中野区白鷺3-9-2,避難所,3000,-1,0,0,0,0,0,1,1,,35.720785,139.631221,1172
13114,多田小学校,東京都中野区南台3-44-9,避難所,3700,-1,0,0,0,0,0,1,1,,35.684207,139.664303,1173
13114,大妻中野中・高等学校,東京都中野区上高田2-3-7,避難所,2500,-1,0,0,0,0,0,1,1,,35.710509,139.671634,1174
13114,大和小学校,東京都中野区大和町4-26-5,避難所,3800,-1,0,0,0,0,0,1,1,,35.71448,139.645109,1175
13114,第九中学校,東京都中野区中野1-57-12,避難所,3500,-1,0,0,0,0,0,1,1,,35.703677,139.672107,1176
13114,第五中学校,東京都中野区上高田4-28-1,避難所,4500,-1,0,0,0,0,0,1,1,,35.715342,139.678439,1177
13114,第三中学校,東京都中野区東中野5-12-1,避難所,4500,-1,0,0,0,0,0,1,1,,35.708149,139.688772,1178
13114,第四中学校,東京都中野区若宮1-1-18,避難所,4200,-1,0,0,0,0,0,1,1,,35.716175,139.649858,1179
13114,第七中学校,東京都中野区江古田2-9-11,避難所,4400,-1,0,0,0,0,0,1,1,,35.724674,139.668051,1180
13114,第十中学校,東京都中野区中央1-41-1,避難所,4000,-1,0,0,0,0,0,1,1,,35.698622,139.683801,1181
13114,第二中学校,東京都中野区本町5-25-1,避難所,6400,-1,0,0,0,0,0,1,1,,35.69265,139.671135,1182
13114,第八中学校,東京都中野区鷺宮4-7-3,避難所,3600,-1,0,0,0,0,0,1,1,,35.724118,139.63597,1183
13114,谷戸小学校,東京都中野区中野1-26-1,避難所,2900,-1,0,0,0,0,0,1,1,,35.702455,139.677051,1184
13114,中央中学校,東京都中野区中野4-12-7,避難所,3700,-1,0,0,0,0,0,1,1,,35.709676,139.661358,1185
13114,中部すこやか福祉センター,東京都中野区中央3-19-1,避難所,2800,-1,0,0,0,0,0,1,3,,35.700316,139.674218,1186
13114,中野神明小学校,東京都中野区弥生町4-27-29,避難所,3900,-1,0,0,0,0,0,1,1,,35.687373,139.669997,1187
13114,中野本郷小学校,東京都中野区本町4-27-3,避難所,3200,-1,0,0,0,0,0,1,1,,35.695122,139.670357,1188
13114,都立鷺宮高等学校,東京都中野区若宮3-46-8,避難所,7400,-1,0,0,0,0,0,1,1,,35.720091,139.643775,1189
13114,塔山小学校,東京都中野区中央1-49-1,避難所,3600,-1,0,0,0,0,0,1,1,,35.700816,139.683606,1190
13114,東京大学教育学部附属中等教育学校,東京都中野区南台1-15-1,避難所,6600,-1,0,0,0,0,0,1,1,,35.685743,139.673825,1191
13114,桃園小学校,東京都中野区本町3-16-1,避難所,3800,-1,0,0,0,0,0,1,1,,35.696011,139.677384,1192
13114,桃園第二小学校,東京都中野区中野6-13-1,避難所,3500,-1,0,0,0,0,0,1,1,,35.707676,139.675967,1193
13114,桃花小学校,東京都中野区中央5-43-1,避難所,4100,-1,0,0,0,0,0,1,3,,35.700455,139.665802,1194
13114,南中野中学校,東京都中野区南台5-22-17,避難所,3700,-1,0,0,0,0,0,1,3,,35.68254,139.662442,1195
13114,白桜小学校,東京都中野区上高田1-2-28,避難所,3200,-1,0,0,0,0,0,1,3,,35.7100029991,139.679146,1196
13114,武蔵台小学校,東京都中野区上鷺宮5-1-1,避難所,3300,-1,0,0,0,0,0,1,1,,35.72809,139.629748,1197
13114,平和の森小学校,東京都中野区新井3-29-1,避難所,3400,-1,0,0,0,0,0,1,3,,35.7147029991,139.659719,1198
13114,宝仙学園,東京都中野区中央2-28-3,避難所,10800,-1,0,0,0,0,0,1,1,,35.699039,139.680579,1199
13114,北原小学校,東京都中野区野方6-30-6,避難所,2600,-1,0,0,0,0,0,1,1,,35.721063,139.651441,1200
13114,北中野中学校,東京都中野区上鷺宮5-7-1,避難所,4000,-1,0,0,0,0,0,1,1,,35.72834,139.628665,1201
13114,明治大学付属中野中・高等学校,東京都中野区東中野3-3-4,避難所,9100,-1,0,0,0,0,0,1,1,,35.706843,139.679578,1202
13114,緑野小学校,東京都中野区丸山1-17-1,避難所,3500,-1,0,0,0,0,0,1,3,,35.7250629991,139.657579,1203
13114,緑野中学校,東京都中野区丸山1-1-19,避難所,3700,-1,0,0,0,0,0,1,3,,35.723785,139.657357,1204
13115,（私）佼成学園,東京都杉並区和田2-6-29,震災救援所補助、代替施設,-1,-1,1,0,0,0,0,0,1,,35.687262,139.65697,1205
13115,（私）光塩女子学園,東京都杉並区高円寺南2-33-28,震災救援所補助、代替施設,-1,-1,1,0,0,0,0,0,1,,35.700399,139.653331,1206
13115,（私）高千穂大学・大学院,東京都杉並区大宮2-19-1,震災救援所補助、代替施設,-1,-1,1,0,0,0,0,0,1,,35.683734,139.637861,1207
13115,（私）国学院大学久我山高校,東京都杉並区久我山1-9-1,震災救援所補助、代替施設,-1,-1,1,0,0,0,0,0,1,,35.683899,139.594309,1208
13115,（私）女子美術短大,東京都杉並区和田1-49-8,震災救援所補助、代替施設,-1,-1,1,0,0,0,0,0,1,,35.6935869991,139.66216,1209
13115,（私）杉並学院,東京都杉並区阿佐谷南2-30-17,震災救援所補助、代替施設,-1,-1,1,0,0,0,0,0,1,,35.70437,139.643082,1210
13115,（私）専修大学附属高校,東京都杉並区和泉4-4-1,震災救援所補助、代替施設,-1,-1,1,0,0,0,0,0,1,,35.677013,139.655415,1211
13115,（私）中央大学杉並高校,東京都杉並区今川2-7-1,震災救援所補助、代替施設,-1,-1,1,0,0,0,0,0,1,,35.7163129991,139.607945,1212
13115,（私）東京女子大学,東京都杉並区善福寺2-6-1,震災救援所補助、代替施設,-1,-1,1,0,0,0,0,0,1,,35.711146,139.590002,1213
13115,（私）東京立正高校,東京都杉並区堀ノ内2-41-15,震災救援所補助、代替施設,-1,-1,1,0,0,0,0,0,1,,35.691455,139.646665,1214
13115,（私）日本大学第二高校,東京都杉並区天沼1-45-33,震災救援所補助、代替施設,-1,-1,1,0,0,0,0,0,3,,35.7102053812,139.628741737,1215
13115,（私）日本大学鶴ヶ丘高校,東京都杉並区和泉2-26-12,震災救援所補助、代替施設,-1,-1,1,0,0,0,0,0,1,,35.6731799991,139.653304,1216
13115,（私）文化女子大学附属杉並高校,東京都杉並区阿佐谷南3-48-16,震災救援所補助、代替施設,-1,-1,1,0,0,0,0,0,1,,35.703926,139.628694,1217
13115,（私）立教女学院,東京都杉並区久我山4-29-23,震災救援所補助、代替施設,-1,-1,1,0,0,0,0,0,1,,35.6933149991,139.588336,1219
13115,コーシャハイム中野弥生町・立正校成会大聖堂一帯,東京都杉並区,避難場所,17700,-1,1,0,0,0,0,0,3,,35.6857474169,139.662013973,1220
13115,セシオン杉並・妙法寺一帯,東京都杉並区,避難場所,25700,-1,1,0,0,0,0,0,3,,35.6968940381,139.653767269,1221
13115,阿佐ヶ谷中震災救援所,東京都杉並区阿佐谷南1-17-3,震災救援所,1434,-1,1,0,0,0,0,0,1,,35.700454,139.636328,1222
13115,阿佐谷第二次救援所,東京都杉並区阿佐谷南1-47-17,第二次救援所,119,-1,1,0,0,0,0,0,3,,35.704012,139.63749,1223
13115,井荻小震災救援所,東京都杉並区善福寺1-10-19,震災救援所,1128,-1,1,0,0,0,0,0,1,,35.711341,139.59628,1225
13115,井荻中震災救援所,東京都杉並区今川2-13-24,震災救援所,1755,-1,1,0,0,0,0,0,1,,35.718257,139.610417,1226
13115,井草森公園一帯,東京都杉並区,避難場所,28100,-1,1,0,0,0,0,0,1,,35.72692,139.61107,1227
13115,井草第二次救援所,東京都杉並区下井草5-7-22,第二次救援所,135,-1,1,0,0,0,0,0,3,,35.720699,139.616525,1228
13115,井草中震災救援所,東京都杉並区上井草3-20-11,震災救援所,1705,-1,1,0,0,0,0,0,1,,35.722117,139.60264,1229
13115,井草八幡宮一帯,東京都杉並区,避難場所,16600,-1,1,0,0,0,0,0,3,,35.716025,139.595327,1230
13115,永福小震災救援所,東京都杉並区永福2-16-33,震災救援所,1192,-1,1,0,0,0,0,0,1,,35.673457,139.639694,1231
13115,永福南小震災救援所,東京都杉並区永福1-7-6,震災救援所,1095,-1,1,0,0,0,0,0,1,,35.669958,139.643527,1232
13115,永福和泉第二次救援所,東京都杉並区和泉3-8-18,第二次救援所,127,-1,1,0,0,0,0,0,3,,35.675295,139.646066,1233
13115,荻窪小震災救援所,東京都杉並区宮前2-13-18,震災救援所,1834,-1,1,0,0,0,0,0,3,,35.694966,139.611976,1234
13115,荻窪第二次救援所,東京都杉並区荻窪2-34-20,第二次救援所,114,-1,1,0,0,0,0,0,3,,35.6985156175,139.618796799,1235
13115,荻窪団地一帯,東京都杉並区,避難場所,15400,-1,1,0,0,0,0,0,3,,35.6971539285,139.626211031,1236
13115,荻窪地域区民センター,東京都杉並区荻窪2-34-20,避難所,-1,-1,0,0,1,0,0,0,1,,35.69858,139.619012,1237
13115,荻窪中震災救援所,東京都杉並区善福寺1-8-3,震災救援所,1259,-1,1,0,0,0,0,0,1,,35.710341,139.596446,1238
13115,久我山小震災救援所,東京都杉並区久我山5-18-7,震災救援所,1280,-1,1,0,0,0,0,0,1,,35.686316,139.606141,1239
13115,久我山二丁目地区グランド一帯,東京都杉並区,避難場所,48200,-1,1,0,0,0,0,0,3,,35.6827970117,139.604108,1240
13115,宮前中震災救援所,東京都杉並区宮前2-12-1,震災救援所,1563,-1,1,0,0,0,0,0,1,,35.693343,139.610585,1241
13115,旧若杉小学校,東京都杉並区天沼3-15-20,震災救援所補助、代替施設,-1,-1,1,0,0,0,0,0,1,,35.708758,139.6185,1242
13115,沓掛小震災救援所,東京都杉並区清水3-1-9,震災救援所,1475,-1,1,0,0,0,0,0,1,,35.716118,139.620916,1243
13115,公社鷺宮西住宅一帯,東京都中野区,避難場所,3800,-1,1,0,0,0,0,0,3,,35.7215522676,139.634457539,1244
13115,向陽中震災救援所,東京都杉並区下高井戸3-24-1,震災救援所,1448,-1,1,0,0,0,0,0,1,,35.672485,139.634861,1245
13115,高井戸小震災救援所,東京都杉並区高井戸西2-2-1,震災救援所,1794,-1,1,0,0,0,0,0,1,,35.684261,139.614668,1246
13115,高井戸第二次救援所,東京都杉並区高井戸東3-7-5,第二次救援所,318,-1,1,0,0,0,0,0,3,,35.6836199991,139.616599,1247
13115,高井戸中震災救援所,東京都杉並区高井戸東1-28-1,震災救援所,1649,-1,1,0,0,0,0,0,1,,35.6814,139.62264,1248
13115,高井戸東小震災救援所,東京都杉並区高井戸東1-12-1,震災救援所,1321,-1,1,0,0,0,0,0,1,,35.680261,139.619446,1249
13115,高円寺第二次救援所,東京都杉並区梅里1-22-32,第二次救援所,219,-1,1,0,0,0,0,0,3,,35.697036,139.653945,1250
13115,高円寺中震災救援所,東京都杉並区高円寺北1-4-11,震災救援所,1283,-1,1,0,0,0,0,0,1,,35.706787,139.655219,1251
13115,高三小震災救援所,東京都杉並区下高井戸4-16-24,震災救援所,1275,-1,1,0,0,0,0,0,1,,35.67204,139.631,1252
13115,高四小震災救援所,東京都杉並区西荻南1-8-16,震災救援所,1088,-1,1,0,0,0,0,0,1,,35.698287,139.602335,1253
13115,高南中震災救援所,東京都杉並区和田3-40-10,震災救援所,1191,-1,1,0,0,0,0,0,1,,35.695594,139.657997,1254
13115,高二小震災救援所,東京都杉並区久我山4-49-1,震災救援所,1389,-1,1,0,0,0,0,0,1,,35.691871,139.599308,1255
13115,済美小震災救援所,東京都杉並区堀ノ内1-17-24,震災救援所,1247,-1,1,0,0,0,0,0,1,,35.685762,139.649665,1256
13115,済美養護学校第二次救援所,東京都杉並区堀ノ内1-19-25,第二次救援所,240,-1,1,0,0,0,0,0,1,,35.685873,139.650526,1257
13115,三谷小震災救援所,東京都杉並区上井草3-14-12,震災救援所,1234,-1,1,0,0,0,0,0,1,,35.72034,139.602362,1258
13115,蚕糸の森公園一帯,東京都杉並区,避難場所,12700,-1,1,0,0,0,0,0,3,,35.697088,139.656057,1259
13115,四宮小震災救援所,東京都杉並区上井草2-12-26,震災救援所,1499,-1,1,0,0,0,0,0,1,,35.72159,139.610028,1260
13115,松ノ木小震災救援所,東京都杉並区松ノ木1-2-26,震災救援所,979,-1,1,0,0,0,0,0,1,,35.687539,139.64286,1261
13115,松ノ木中震災救援所,東京都杉並区松ノ木1-4-1,震災救援所,1202,-1,1,0,0,0,0,0,1,,35.686817,139.640971,1262
13115,松庵小震災救援所,東京都杉並区松庵2-3-24,震災救援所,1247,-1,1,0,0,0,0,0,1,,35.700147,139.59303,1263
13115,松渓中震災救援所,東京都杉並区荻窪2-3-1,震災救援所,1340,-1,1,0,0,0,0,0,1,,35.696315,139.622334,1264
13115,上井草スポーツセンター一帯,東京都杉並区,避難場所,41100,-1,1,0,0,0,0,0,3,,35.722942648,139.601513324,1265
13115,新泉小震災救援所,東京都杉並区和泉1-44-26,震災救援所,889,-1,1,0,0,0,0,0,1,,35.675957,139.656054,1266
13115,神明中震災救援所,東京都杉並区南荻窪2-37-28,震災救援所,1123,-1,1,0,0,0,0,0,1,,35.700425,139.610084,1267
13115,杉一小震災救援所,東京都杉並区阿佐谷北1-5-27,震災救援所,1005,-1,1,0,0,0,0,0,1,,35.70637,139.636999,1268
13115,杉九小震災救援所,東京都杉並区本天沼1-2-19,震災救援所,1307,-1,1,0,0,0,0,0,1,,35.713536,139.633332,1269
13115,杉三小震災救援所,東京都杉並区高円寺南1-15-13,震災救援所,1189,-1,1,0,0,0,0,0,1,,35.699455,139.656636,1270
13115,杉四小震災救援所,東京都杉並区高円寺北2-14-13,震災救援所,1113,-1,1,0,0,0,0,0,1,,35.706954,139.653581,1271
13115,杉七小震災救援所,東京都杉並区阿佐谷南3-19-2,震災救援所,1133,-1,1,0,0,0,0,0,1,,35.70287,139.63136,1272
13115,杉十小震災救援所,東京都杉並区和田3-55-49,震災救援所,1420,-1,1,0,0,0,0,0,1,,35.697066,139.65747,1273
13115,杉森中震災救援所,東京都杉並区阿佐谷北5-45-24,震災救援所,1312,-1,1,0,0,0,0,0,1,,35.711651,139.641405,1274
13115,杉二小震災救援所,東京都杉並区成田西3-4-1,震災救援所,1411,-1,1,0,0,0,0,0,1,,35.692908658,139.632255942,1275
13115,杉八小震災救援所,東京都杉並区高円寺南2-40-24,震災救援所,941,-1,1,0,0,0,0,0,1,,35.701232,139.651303,1276
13115,杉並会館,東京都杉並区上荻3-29-5,避難所,-1,-1,0,0,1,0,0,0,1,,35.710461,139.607793,1277
13115,杉並第二小学校,東京都杉並区成田西3-4-1,避難所,-1,-1,0,0,1,0,0,0,1,,35.69301,139.63225,1278
13115,杉六小震災救援所,東京都杉並区阿佐谷南1-24-21,震災救援所,1140,-1,1,0,0,0,0,0,1,,35.701565,139.643387,1279
13115,西荻第二次救援所,東京都杉並区桃井4-3-2,第二次救援所,188,-1,1,0,0,0,0,0,3,,35.712641,139.602232,1280
13115,西宮中震災救援所,東京都杉並区宮前5-1-25,震災救援所,1282,-1,1,0,0,0,0,0,1,,35.692621,139.601641,1281
13115,西田小震災救援所,東京都杉並区荻窪1-38-15,震災救援所,1787,-1,1,0,0,0,0,0,1,,35.694454,139.622167,1282
13115,泉南中震災救援所,東京都杉並区堀ノ内1-3-1,震災救援所,1216,-1,1,0,0,0,0,0,1,,35.684151,139.655498,1283
13115,善福寺公園・東京女子大学一帯,東京都杉並区,避難場所,23400,-1,1,0,0,0,0,0,3,,35.712214,139.591749,1284
13115,善福寺川緑地・和田堀公園（西地区）一帯,東京都杉並区,避難場所,140900,-1,1,0,0,0,0,0,3,,35.6918773501,139.626307349,1285
13115,大宮小震災救援所,東京都杉並区堀ノ内1-12-16,震災救援所,994,-1,1,0,0,0,0,0,1,,35.683595,139.649415,1286
13115,大宮中学校,東京都杉並区堀ノ内1-16-38,避難所、震災救援所,1532,-1,1,0,1,0,0,0,1,,35.68665,139.64836,1287
13115,中瀬中震災救援所,東京都杉並区下井草4-3-29,震災救援所,1365,-1,1,0,0,0,0,0,1,,35.719451,139.619972,1289
13115,中野区役所一帯,東京都杉並区,避難場所,4600,-1,1,0,0,0,0,0,3,,35.7080592366,139.663625218,1290
13115,天沼小震災救援所,東京都杉並区天沼2-46-3,震災救援所,1399,-1,1,0,0,0,0,0,3,,35.710869,139.623277,1291
13115,天沼中震災救援所,東京都杉並区本天沼3-10-20,震災救援所,1348,-1,1,0,0,0,0,0,1,,35.712285,139.620833,1292
13115,都営上高井戸住宅一帯,東京都杉並区,避難場所,42900,-1,1,0,0,0,0,0,3,,35.6847597578,139.617594954,1293
13115,都立荻窪高校,東京都杉並区荻窪5-7-20,震災救援所補助、代替施設,-1,-1,1,0,0,0,0,0,1,,35.702092,139.619528,1294
13115,都立杉並工業高校,東京都杉並区上井草4-13-31,震災救援所補助、代替施設,-1,-1,1,0,0,0,0,0,1,,35.718979,139.59889,1295
13115,都立杉並高校,東京都杉並区成田西4-15-15,震災救援所補助、代替施設,-1,-1,1,0,0,0,0,0,1,,35.696371,139.631444,1296
13115,都立杉並総合高校,東京都杉並区下高井戸5-17-1,震災救援所補助、代替施設,-1,-1,1,0,0,0,0,0,1,,35.6765949991,139.622807,1297
13115,都立西高校,東京都杉並区宮前4-21-32,震災救援所補助、代替施設,-1,-1,1,0,0,0,0,0,1,,35.691676,139.60478,1298
13115,都立農芸高校,東京都杉並区今川3-25-1,震災救援所補助、代替施設,-1,-1,1,0,0,0,0,0,1,,35.7179229991,139.603668,1299
13115,東原中震災救援所,東京都杉並区下井草1-28-5,震災救援所,1486,-1,1,0,0,0,0,0,1,,35.717841,139.631026,1300
13115,東田小震災救援所,東京都杉並区成田東1-21-1,震災救援所,1012,-1,1,0,0,0,0,0,1,,35.691538,139.638944,1301
13115,東田中震災救援所,東京都杉並区成田東3-19-17,震災救援所,1410,-1,1,0,0,0,0,0,1,,35.694649,139.635194,1302
13115,桃一小震災救援所,東京都杉並区桃井2-6-1,震災救援所,1420,-1,1,0,0,0,0,0,1,,35.712035,139.609251,1303
13115,桃五小震災救援所,東京都杉並区下井草4-22-4,震災救援所,1553,-1,1,0,0,0,0,0,1,,35.722257,139.619749,1304
13115,桃三小震災救援所,東京都杉並区西荻北2-10-7,震災救援所,1238,-1,1,0,0,0,0,0,1,,35.705369,139.602335,1305
13115,桃四小震災救援所,東京都杉並区善福寺3-3-5,震災救援所,1310,-1,1,0,0,0,0,0,1,,35.717007,139.594474,1306
13115,桃二小震災救援所,東京都杉並区荻窪5-10-25,震災救援所,1399,-1,1,0,0,0,0,0,1,,35.701953,139.617889,1307
13115,馬橋小震災救援所,東京都杉並区高円寺北4-28-5,震災救援所,1323,-1,1,0,0,0,0,0,1,,35.708648,139.643304,1308
13115,柏の宮公園一帯,東京都杉並区,避難場所,35200,-1,1,0,0,0,0,0,1,,35.6783210491,139.62629384,1309
13115,白鷺一丁目地区,東京都中野区,避難場所,14300,-1,1,0,0,0,0,0,3,,35.7183491683,139.639148393,1310
13115,八成小震災救援所,東京都杉並区井草2-25-4,震災救援所,1356,-1,1,0,0,0,0,0,1,,35.728478,139.619638,1311
13115,浜田山小震災救援所,東京都杉並区浜田山4-23-1,震災救援所,1647,-1,1,0,0,0,0,0,1,,35.685622,139.6295,1312
13115,富士見丘小震災救援所,東京都杉並区上高井戸2-116-13,震災救援所,1236,-1,1,0,0,0,0,0,1,,35.679706,139.607085,1313
13115,富士見丘中震災救援所,東京都杉並区久我山2-20-1,震災救援所,1277,-1,1,0,0,0,0,0,1,,35.682872,139.605724,1314
13115,都立豊多摩高校,東京都杉並区成田西2-6-18,震災救援所補助、代替施設,-1,-1,1,0,0,0,0,0,1,,35.6891219991,139.629,1315
13115,方南小震災救援所,東京都杉並区方南1-52-14,震災救援所,1550,-1,1,0,0,0,0,0,1,,35.679902,139.658387,1316
13115,堀之内小震災救援所,東京都杉並区堀之内3-24-11,震災救援所,1397,-1,1,0,0,0,0,0,1,,35.693205,139.646971,1317
13115,和泉小震災救援所,東京都杉並区和泉2-17-21,震災救援所,1048,-1,1,0,0,0,0,0,1,,35.67543,139.648999,1319
13115,和泉中震災救援所,東京都杉並区和泉2-17-14,震災救援所,1122,-1,1,0,0,0,0,0,1,,35.674374,139.648777,1320
13115,和田小学校,東京都杉並区和田2-30-21,避難所、震災救援所,1246,-1,1,0,1,0,0,0,1,,35.690872,139.657025,1321
13115,和田中震災救援所,東京都杉並区和田2-21-8,震災救援所,1444,-1,1,0,0,0,0,0,1,,35.690428,139.658497,1323
13115,和田堀公園（東地区）一帯,東京都杉並区,避難場所,23500,-1,1,0,0,0,0,0,3,,35.6841870033,139.643232094,1324
13116,（旧）高田小学校,東京都豊島区雑司が谷2-12-1,救援センター,-1,-1,0,0,0,0,0,1,3,,35.7193586254,139.716499116,1325
13116,（旧）千川小学校,東京都豊島区要町3-54-16,救援センター,-1,-1,0,0,0,0,0,1,3,,35.7408063647,139.689072986,1326
13116,さくら小学校,東京都豊島区長崎6-16-1,救援センター,-1,-1,0,0,0,0,0,1,1,,35.736007,139.680022,1328
13116,みらい館大明,東京都豊島区池袋3-30-8,救援センター,-1,-1,0,0,0,0,0,1,3,,35.735636,139.704503,1329
13116,学習院大学,東京都豊島区目白1-5-1,避難場所,86200,130800,0,0,0,0,0,1,1,,35.718815,139.708825,1330
13116,仰高小学校,東京都豊島区駒込5-1-19,救援センター,-1,-1,0,0,0,0,0,1,1,,35.736508,139.738628,1332
13116,駒込小学校,東京都豊島区駒込3-13-1,救援センター,-1,-1,0,0,0,0,0,1,1,,35.738341,139.742961,1333
13116,駒込中学校,東京都豊島区駒込4-5-1,救援センター,-1,-1,0,0,0,0,0,1,1,,35.735953,139.741988,1334
13116,駒込中学校一帯,東京都豊島区,避難場所,-1,-1,0,0,0,0,0,1,3,,35.7354557882,139.74348799,1335
13116,公社向原住宅一帯,東京都豊島区,避難場所,56500,66400,0,0,0,0,0,1,3,,35.7451372265,139.683504252,1336
13116,高松小学校,東京都豊島区高松2-57-22,救援センター,-1,-1,0,0,0,0,0,1,1,,35.739535,139.697159,1337
13116,高南小学校,東京都豊島区高田2-12-7,救援センター,-1,-1,0,0,0,0,0,1,1,,35.716454,139.713992,1338
13116,雑司ヶ谷墓地,東京都豊島区,避難場所,18500,51900,0,0,0,0,0,1,3,,35.722449,139.71984,1339
13116,清和小学校,東京都豊島区巣鴨3-14-1,救援センター,-1,-1,0,0,0,0,0,1,1,,35.735897,139.733045,1340
13116,西巣鴨小学校,東京都豊島区西巣鴨1-27-1,救援センター,-1,-1,0,0,0,0,0,1,1,,35.738647,139.726462,1341
13116,西巣鴨中学校,東京都豊島区南大塚3-18-1,救援センター,-1,-1,0,0,0,0,0,1,1,,35.728953,139.727212,1342
13116,西池袋中学校（仮校舎）,東京都豊島区目白5-24-12,救援センター,-1,-1,0,0,0,0,0,1,3,,35.725445,139.697007,1343
13116,西部区民事務所,東京都豊島区千早2-39-3,救援センター,-1,-1,0,0,0,0,0,1,1,,35.735804,139.69096,1344
13116,千川中学校,東京都豊島区高松1-9-21,救援センター,-1,-1,0,0,0,0,0,1,1,,35.736091,139.699964,1345
13116,千早小学校,東京都豊島区千早3-33-5,救援センター,-1,-1,0,0,0,0,0,1,1,,35.734957,139.687347,1346
13116,千登世橋中学校,東京都豊島区目白1-1-1,救援センター,-1,-1,0,0,0,0,0,1,1,,35.717425,139.711955,1347
13116,染井墓地,東京都豊島区,避難場所,-1,-1,0,0,0,0,0,1,3,,35.73864,139.737044,1348
13116,巣鴨小学校,東京都豊島区南大塚1-24-10,救援センター,-1,-1,0,0,0,0,0,1,1,,35.728676,139.734517,1349
13116,巣鴨北中学校,東京都豊島区西巣鴨3-17-1,救援センター,-1,-1,0,0,0,0,0,1,1,,35.741591,139.728795,1350
13116,池袋小学校,東京都豊島区池袋4-23-8,救援センター,-1,-1,0,0,0,0,0,1,1,,35.737813,139.70938,1351
13116,池袋第一小学校,東京都豊島区上池袋4-28-1,救援センター,-1,-1,0,0,0,0,0,1,1,,35.741591,139.719101,1352
13116,池袋第三小学校,東京都豊島区西池袋3-14-3,救援センター,-1,-1,0,0,0,0,0,1,1,,35.72848,139.702853,1353
13116,池袋第二小学校,東京都豊島区池袋本町1-43-1,救援センター,-1,-1,0,0,0,0,0,1,1,,35.74084,139.714657,1354
13116,池袋中学校,東京都豊島区池袋本町4-5-24,救援センター,-1,-1,0,0,0,0,0,1,1,,35.741924,139.714546,1355
13116,朝日小学校,東京都豊島区巣鴨5-33-1,救援センター,-1,-1,0,0,0,0,0,1,1,,35.741035,139.733239,1356
13116,長崎小学校,東京都豊島区長崎2-6-3,救援センター,-1,-1,0,0,0,0,0,1,1,,35.728647,139.690104,1357
13116,椎名町小学校,東京都豊島区南長崎4-30-5,救援センター,-1,-1,0,0,0,0,0,1,1,,35.726675,139.685521,1358
13116,哲学堂公園一帯,東京都豊島区,避難場所,80300,87800,0,0,0,0,0,1,1,,35.72246,139.67403,1359
13116,南池袋小学校,東京都豊島区南池袋3-18-12,救援センター,-1,-1,0,0,0,0,0,1,1,,35.724151,139.714689,1360
13116,富士見台小学校,東京都豊島区南長崎1-10-5,救援センター,-1,-1,0,0,0,0,0,1,1,,35.724675,139.693215,1361
13116,文成小学校,東京都豊島区池袋本町4-36-1,救援センター,-1,-1,0,0,0,0,0,1,1,,35.744312,139.714407,1362
13116,朋有小学校,東京都豊島区東池袋4-40-1,救援センター,-1,-1,0,0,0,0,0,1,1,,35.728953,139.723601,1363
13116,豊成小学校,東京都豊島区上池袋1-18-24,救援センター,-1,-1,0,0,0,0,0,1,1,,35.734952,139.722074,1364
13116,豊島区立総合体育場一帯,東京都豊島区,避難場所,56300,66800,0,0,0,0,0,1,3,,35.7290273465,139.722101819,1365
13116,明豊中学校,東京都豊島区長崎5-31-29,救援センター,-1,-1,0,0,0,0,0,1,1,,35.736007,139.684382,1366
13116,目白小学校,東京都豊島区目白2-11-6,救援センター,-1,-1,0,0,0,0,0,1,1,,35.720954,139.709409,1367
13116,要小学校,東京都豊島区要町2-3-20,救援センター,-1,-1,0,0,0,0,0,1,1,,35.734396,139.693743,1368
13116,立教大学,東京都豊島区,避難場所,45200,53000,0,0,0,0,0,1,1,,35.730119,139.702298,1369
13203,グリーンパーク,東京都武蔵野市,広域避難場所,161500,323000,0,0,0,0,0,1,3,,35.7179662628,139.563009777,2547
13203,井の頭恩賜公園,東京都武蔵野市,広域避難場所,26500,53000,0,0,0,0,0,1,1,,35.7007319,139.57235331,2549
13203,井之頭小学校,東京都武蔵野市吉祥寺本町3-27-19,指定避難所,2661,4391,0,0,0,0,0,1,1,,35.704063,139.568199,2550
13203,関前南小学校,東京都武蔵野市関前3-37-26,指定避難所,1673,2761,0,0,0,0,0,1,1,,35.7137,139.54995,2551
13203,境南小学校,東京都武蔵野市境南町2-27-27,指定避難所,3267,5391,0,0,0,0,0,1,1,,35.697147,139.544729,2553
13203,国際基督教大学周辺,東京都武蔵野市,広域避難場所,447500,895000,0,0,0,0,0,1,3,,35.6833296543,139.52987584,2555
13203,桜野小学校,東京都武蔵野市桜堤1-8-19,指定避難所,2294,3785,0,0,0,0,0,1,1,,35.709895,139.534285,2557
13203,成蹊学園グラウンド,東京都武蔵野市,広域避難場所,31500,63000,0,0,0,0,0,1,3,,35.715159,139.574679,2561
13203,千川小学校,東京都武蔵野市八幡町3-5-25,指定避難所,2888,4766,0,0,0,0,0,1,1,,35.718755,139.553144,2562
13203,大野田小学校,東京都武蔵野市吉祥寺北町4-11-37,指定避難所,3465,5717,0,0,0,0,0,1,1,,35.715617,139.56706,2563
13203,第一小学校,東京都武蔵野市吉祥寺本町4-17-16,指定避難所,2143,3536,0,0,0,0,0,1,1,,35.708951,139.573448,2564
13203,第一中学校,東京都武蔵野市中町3-9-5,指定避難所,2839,4684,0,0,0,0,0,1,1,,35.710812,139.566004,2565
13203,第五小学校,東京都武蔵野市関前3-2-20,指定避難所,2262,3733,0,0,0,0,0,1,1,,35.712923,139.556227,2566
13203,第五中学校,東京都武蔵野市関前2-10-20,指定避難所,2202,3634,0,0,0,0,0,1,1,,35.71034,139.551311,2567
13203,第三小学校,東京都武蔵野市吉祥寺南町2-35-9,指定避難所,2733,4510,0,0,0,0,0,1,1,,35.702536,139.587003,2568
13203,第三中学校,東京都武蔵野市吉祥寺東町1-23-8,指定避難所,2875,4744,0,0,0,0,0,1,1,,35.707646,139.586836,2569
13203,第四小学校,東京都武蔵野市吉祥寺北町2-4-5,指定避難所,2447,4037,0,0,0,0,0,1,1,,35.712118,139.580503,2570
13203,第四中学校,東京都武蔵野市吉祥寺北町5-11-41,指定避難所,4835,7977,0,0,0,0,0,1,1,,35.718811,139.569865,2571
13203,第二小学校,東京都武蔵野市境4-2-15,指定避難所,2321,3829,0,0,0,0,0,1,1,,35.708451,139.542729,2572
13203,第二中学校,東京都武蔵野市桜堤1-7-31,指定避難所,2992,4936,0,0,0,0,0,1,1,,35.709812,139.535424,2573
13203,第六中学校,東京都武蔵野市境3-20-10,指定避難所,2541,4193,0,0,0,0,0,1,1,,35.708534,139.545367,2574
13203,都立武蔵高校,東京都武蔵野市境4-13-28,指定避難所,1188,1960,0,0,0,0,0,1,1,,35.708395,139.53859,2575
13203,都立武蔵野北高校,東京都武蔵野市八幡町2-3-10,指定避難所,987,1629,0,0,0,0,0,1,1,,35.7203939991,139.557671,2576
13203,本宿小学校,東京都武蔵野市吉祥寺東町4-1-9,指定避難所,2844,4693,0,0,0,0,0,1,1,,35.704758,139.590752,2578
13229,けやき小学校,東京都西東京市芝久保町5-7-1,避難所,1399,-1,0,0,0,0,0,1,1,,35.734302,139.526032,3671
13229,けやき保育園,東京都西東京市西原町4-5-96,二次避難所,-1,-1,0,0,0,0,0,1,1,,35.736586,139.530117,3672
13229,コール田無,東京都西東京市田無町3-7-2,避難所,343,-1,0,0,0,0,0,1,1,,35.729251,139.54375,3673
13229,こまどり保育園,東京都西東京市下保谷2-14-18,二次避難所,-1,-1,0,0,0,0,0,1,1,,35.752196,139.558809,3674
13229,しもほうや保育園,東京都西東京市下保谷3-8-15,二次避難所,-1,-1,0,0,0,0,0,1,1,,35.754807,139.56653,3675
13229,すみよし保育園,東京都西東京市住吉町3-14-14,二次避難所,-1,-1,0,0,0,0,0,1,1,,35.749696,139.54931,3676
13229,そよかぜ保育園,東京都西東京市ひばりが丘3-1-25,二次避難所,-1,-1,0,0,0,0,0,1,4,,35.7459653866,139.536901921,3677
13229,なかまち保育園,東京都西東京市中町4-4-16,二次避難所,-1,-1,0,0,0,0,0,1,1,,35.737198,139.564364,3678
13229,はこべら保育園,東京都西東京市富士町1-7-2,二次避難所,-1,-1,0,0,0,0,0,1,1,,35.733893,139.560309,3679
13229,ひがしふしみ保育園,東京都西東京市東伏見2-11-11,二次避難所,-1,-1,0,0,0,0,0,1,1,,35.727532,139.560171,3680
13229,ひがし保育園,東京都西東京市東町2-4-13,二次避難所,-1,-1,0,0,0,0,0,1,1,,35.746336,139.560559,3681
13229,ひばりが丘公民館,東京都西東京市ひばりが丘2-3-4,避難所,181,-1,0,0,0,0,0,1,1,,35.747402,139.540614,3682
13229,ひばりが丘中学校,東京都西東京市住吉町1-14-28,避難所,1208,-1,0,0,0,0,0,1,1,,35.742836,139.548393,3683
13229,ひばりが丘福祉会館,東京都西東京市ひばりが丘2-8-27,二次避難所,-1,-1,0,0,0,0,0,1,1,,35.748538,139.53778,3684
13229,ひばりが丘保育園,東京都西東京市ひばりが丘2-3-5,二次避難所,-1,-1,0,0,0,0,0,1,1,,35.747141,139.540394,3685
13229,ほうやちょう保育園,東京都西東京市保谷町3-13-1,二次避難所,-1,-1,0,0,0,0,0,1,1,,35.729587,139.553171,3686
13229,みどり保育園,東京都西東京市緑町2-15-12,二次避難所,-1,-1,0,0,0,0,0,1,1,,35.742086,139.535839,3687
13229,やぎさわ保育園,東京都西東京市柳沢5-8-2,二次避難所,-1,-1,0,0,0,0,0,1,1,,35.722116,139.551005,3688
13229,栄小学校,東京都西東京市栄町2-10-9,避難所,1098,-1,0,0,0,0,0,1,1,,35.752085,139.552921,3689
13229,下保谷福祉会館,東京都西東京市下保谷4-3-18,二次避難所,-1,-1,0,0,0,0,0,1,1,,35.750433,139.565093,3690
13229,向台小学校,東京都西東京市向台町2-1-1,避難所,1221,-1,0,0,0,0,0,1,1,,35.722338,139.539617,3691
13229,向台保育園,東京都西東京市南町3-23-1,二次避難所,-1,-1,0,0,0,0,0,1,1,,35.725615,139.542006,3692
13229,市民会館,東京都西東京市田無町4-15-11,避難所,610,-1,0,0,0,0,0,1,1,,35.728065,139.534432,3693
13229,市民総合体育館,東京都西東京市向台町5-4-20,避難所,976,-1,0,0,0,0,0,1,1,,35.720033,139.529963,3694
13229,芝久保公民館,東京都西東京市芝久保町5-4-48,避難所,196,-1,0,0,0,0,0,1,1,,35.732673,139.528071,3695
13229,芝久保小学校,東京都西東京市芝久保町3-7-1,避難所,956,-1,0,0,0,0,0,1,1,,35.728747,139.522859,3696
13229,芝久保保育園,東京都西東京市芝久保町1-14-32,二次避難所,-1,-1,0,0,0,0,0,1,1,,35.724615,139.526396,3697
13229,社会福祉法人健光園,東京都西東京市田無町5-5-19,二次避難所,-1,-1,0,0,0,0,0,1,1,,35.731781,139.536645,3698
13229,住吉会館（ルピナス）,東京都西東京市住吉町6-1-25,二次避難所,-1,-1,0,0,0,0,0,1,3,,35.7444437116,139.551415437,3699
13229,住吉小学校,東京都西東京市住吉町5-2-1,避難所,929,-1,0,0,0,0,0,1,1,,35.745919,139.553171,3700
13229,上向台小学校,東京都西東京市向台町6-7-28,避難所,1536,-1,0,0,0,0,0,1,1,,35.720727,139.525896,3701
13229,新町福祉会館,東京都西東京市新町5-2-7,二次避難所,-1,-1,0,0,0,0,0,1,1,,35.712894,139.536323,3702
13229,西原保育園,東京都西東京市芝久保町5-4-2,二次避難所,-1,-1,0,0,0,0,0,1,1,,35.733531,139.527201,3703
13229,青嵐中学校,東京都西東京市北町2-13-17,避難所,1905,-1,0,0,0,0,0,1,1,,35.756668,139.55667,3704
13229,泉小学校,東京都西東京市泉町3-6-8,避難所,814,-1,0,0,0,0,0,1,1,,35.741392,139.553143,3705
13229,谷戸公民館,東京都西東京市谷戸町1-17-2,避難所,182,-1,0,0,0,0,0,1,1,,35.741483,139.543702,3706
13229,谷戸高齢者在宅サービスセンター,東京都西東京市谷戸町3-23-8,二次避難所,-1,-1,0,0,0,0,0,1,3,,35.748885,139.543766,3707
13229,谷戸小学校,東京都西東京市緑町3-1-1,避難所,1162,-1,0,0,0,0,0,1,1,,35.740253,139.542727,3708
13229,谷戸第二小学校,東京都西東京市谷戸町1-17-27,避難所,1087,-1,0,0,0,0,0,1,1,,35.741475,139.545199,3709
13229,中原小学校,東京都西東京市ひばりが丘2-6-25,避難所,1322,-1,0,0,0,0,0,1,1,,35.74703,139.538061,3710
13229,田無公民館,東京都西東京市南町5-6-11,避難所,250,-1,0,0,0,0,0,1,4,,35.7259451714,139.537536611,3711
13229,田無小学校,東京都西東京市田無町4-5-21,避難所,1251,-1,0,0,0,0,0,1,1,,35.728313,139.537604,3712
13229,田無総合福祉センター,東京都西東京市田無町5-5-12,二次避難所,-1,-1,0,0,0,0,0,1,1,,35.731809,139.536209,3713
13229,田無第一中学校,東京都西東京市南町6-9-37,避難所,1270,-1,0,0,0,0,0,1,1,,35.724504,139.531729,3714
13229,田無第三中学校,東京都西東京市西原町3-4-1,避難所,988,-1,0,0,0,0,0,1,1,,35.734809,139.53109,3715
13229,田無第四中学校,東京都西東京市向台町2-14-9,避難所,1399,-1,0,0,0,0,0,1,1,,35.719727,139.540423,3716
13229,田無第二中学校,東京都西東京市北原町2-9-1,避難所,970,-1,0,0,0,0,0,1,1,,35.738309,139.545116,3717
13229,田無保育園,東京都西東京市緑町1-2-26,二次避難所,-1,-1,0,0,0,0,0,1,1,,35.733948,139.5402,3718
13229,東京都立田無工業高等学校,東京都西東京市向台町1-9-1,避難所,920,-1,0,0,0,0,0,1,1,,35.720477,139.548561,3719
13229,東京都立田無高等学校,東京都西東京市向台町5-4-32,避難所,995,-1,0,0,0,0,0,1,1,,35.720505,139.528702,3720
13229,東京都立田無特別支援学校,東京都西東京市南町5-15-5,二次避難所,-1,-1,0,0,0,0,0,1,1,,35.7233659991,139.534312,3721
13229,東京都立保谷高等学校,東京都西東京市住吉町5-8-23,避難所,1023,-1,0,0,0,0,0,1,1,,35.746086,139.555393,3722
13229,東小学校,東京都西東京市東町6-2-33,避難所,879,-1,0,0,0,0,0,1,1,,35.741781,139.56417,3723
13229,東伏見小学校,東京都西東京市東伏見6-1-28,避難所,1018,-1,0,0,0,0,0,1,1,,35.725949,139.559254,3724
13229,日本文華学園,東京都西東京市西原町4-5-85,避難所,168,-1,0,0,0,0,0,1,3,,35.738086,139.530451,3725
13229,富士町福祉会館,東京都西東京市富士町6-6-13,二次避難所,-1,-1,0,0,0,0,0,1,1,,35.730066,139.556899,3726
13229,武蔵野女子学院,東京都西東京市新町1-1-20,避難所,1596,-1,0,0,0,0,0,1,1,,35.718311,139.54695,3727
13229,碧山小学校,東京都西東京市中町5-11-4,避難所,1102,-1,0,0,0,0,0,1,1,,35.738337,139.563031,3728
13229,保谷駅前公民館,東京都西東京市東町3-14-30,避難所,84,-1,0,0,0,0,0,1,1,,35.747854,139.567369,3729
13229,保谷小学校,東京都西東京市保谷町1-3-35,避難所,952,-1,0,0,0,0,0,1,1,,35.736906,139.554595,3730
13229,保谷障害者福祉センター,東京都西東京市保谷町1-6-20,二次避難所,-1,-1,0,0,0,0,0,1,1,,35.734598,139.556323,3731
13229,保谷第一小学校,東京都西東京市下保谷1-4-4,避難所,877,-1,0,0,0,0,0,1,1,,35.749891,139.558003,3732
13229,保谷第二小学校,東京都西東京市柳沢4-2-11,避難所,1134,-1,0,0,0,0,0,1,1,,35.720283,139.550561,3733
13229,保谷中学校,東京都西東京市保谷町1-17-4,避難所,1758,-1,0,0,0,0,0,1,1,,35.733565,139.556645,3734
13229,本町小学校,東京都西東京市保谷町1-14-23,避難所,945,-1,0,0,0,0,0,1,1,,35.732914,139.555669,3735
13229,明保中学校,東京都西東京市東町1-1-24,避難所,1201,-1,0,0,0,0,0,1,1,,35.742836,139.56267,3736
13229,柳沢公民館,東京都西東京市柳沢1-15-1,避難所,243,-1,0,0,0,0,0,1,1,,35.728338,139.553949,3737
13229,柳沢小学校,東京都西東京市南町2-12-37,避難所,924,-1,0,0,0,0,0,1,1,,35.722033,139.547783,3738
13229,柳沢中学校,東京都西東京市柳沢3-8-22,避難所,1064,-1,0,0,0,0,0,1,1,,35.720561,139.552533,3739
13229,老人憩いの家「おあしす」,東京都西東京市南町3-18-40,二次避難所,-1,-1,0,0,0,0,0,1,1,,35.722497,139.54272,3740